,name,countries,country codes alpha 3,endangerment,speakers,latitude,longitude
0,South Italian,Italy,ITA,Vulnerable,7500000.0,40.9798,15.249
1,Sicilian,Italy,ITA,Vulnerable,5000000.0,37.4399,14.5019
2,Low Saxon,"Germany, Denmark, Netherlands, Poland, Russian Federation","DEU, DNK, NLD, POL, RUS",Vulnerable,4800000.0,53.4029,10.3601
3,Belarusian,"Belarus, Latvia, Lithuania, Poland, Russian Federation, Ukraine","BRB, LVA, LTU, POL, RUS, UKR",Vulnerable,4000000.0,53.956,27.5756
4,Lombard,"Italy, Switzerland","ITA, CHE",Definitely endangered,3500000.0,45.7215,9.3273
5,Romani,"Albania, Germany, Austria, Belarus, Bosnia and Herzegovina, Bulgaria, Croatia, Estonia, Finland, France, Greece, Hungary, Italy, Latvia, Lithuania, The former Yugoslav Republic of Macedonia, Netherlands, Poland, Romania, United Kingdom of Great Britain and Northern Ireland, Russian Federation, Slovakia, Slovenia, Switzerland, Czech Republic, Turkey, Ukraine, Serbia, Montenegro","ALB, DEU, AUT, BRB, BIH, BGR, HRV, EST, FIN, FRA, GRC, HUN, ITA, LVA, LTU, MKD, NLD, POL, ROU, GBR, RUS, SVK, SVN, CHE, CZE, TUR, UKR, SRB, MNE",Definitely endangered,3500000.0,46.3165,22.3681
6,Yiddish (Israel),Israel,ISR,Definitely endangered,3000000.0,32.0833,34.8333
7,Gondi,India,IND,Vulnerable,2713790.0,19.5804,80.4418
8,Limburgian-Ripuarian,"Germany, Belgium, Netherlands","DEU, BEL, NLD",Vulnerable,2600000.0,50.7781,6.0864
9,Quechua of Southern Bolivia,Bolivia (Plurinational State of),BOL,Vulnerable,2300000.0,-18.0675,-65.7641
10,Kumaoni,"India, Nepal","IND, NPL",Vulnerable,2003783.0,29.4778,79.8486
11,Aymara,"Bolivia (Plurinational State of), Chile, Peru","BOL, CHL, PER",Vulnerable,2000000.0,-16.5835,-68.302
12,Emilian-Romagnol,"Italy, San Marino","ITA, SMR",Definitely endangered,2000000.0,44.127,12.0739
13,Piedmontese,Italy,ITA,Definitely endangered,2000000.0,45.2013,7.8662
14,Venetan,"Croatia, Italy, Slovenia","HRV, ITA, SVN",Vulnerable,2000000.0,45.4601,12.1948
15,Zazaki,Turkey,TUR,Vulnerable,2000000.0,38.8824,40.4846
16,Kurux (India),India,IND,Vulnerable,1751489.0,22.1467,85.2758
17,Tamajeq,Niger,NER,Vulnerable,1750000.0,17.2352,8.0859
18,Tulu,India,IND,Vulnerable,1722768.0,12.0178,75.7067
19,Kangdi,India,IND,Definitely endangered,1700000.0,32.4356,76.1242
20,Scots,United Kingdom of Great Britain and Northern Ireland,GBR,Vulnerable,1500000.0,56.2189,-3.7683
21,Torlak,"Albania, Bulgaria, The former Yugoslav Republic of Macedonia, Romania, Serbia","ALB, BGR, MKD, ROU, SRB",Vulnerable,1500000.0,42.9644,22.1374
22,West Flemish,"Belgium, France, Netherlands","BEL, FRA, NLD",Vulnerable,1500000.0,51.0275,3.0541
23,Bashkir,Russian Federation,RUS,Vulnerable,1379727.0,54.7309,55.9863
24,Chechen,Russian Federation,RUS,Vulnerable,1331844.0,43.1971,45.7031
25,Chuvash,Russian Federation,RUS,Vulnerable,1325382.0,56.1394,47.2412
26,Meithei,India,IND,Vulnerable,1250000.0,24.7667,93.8946
27,Tamang,"India, Nepal","IND, NPL",Vulnerable,1196639.0,27.7365,85.6858
28,Quechua of Cuzco,Peru,PER,Vulnerable,1115000.0,-13.4537,-72.0098
29,Eastern Slovak,"Slovakia, Ukraine","SVK, UKR",Vulnerable,1000000.0,48.8068,21.7968
30,Ligurian,"France, Italy, Monaco","FRA, ITA, MCO",Definitely endangered,1000000.0,44.5748,8.7011
31,Rusyn,"Hungary, Poland, Romania, Slovakia, Ukraine","HUN, POL, ROU, SVK, UKR",Vulnerable,1000000.0,48.4437,22.9394
32,Talysh,"Azerbaijan, Iran (Islamic Republic of)","AZE, IRN",Vulnerable,1000000.0,38.814,48.6804
33,Kui,India,IND,Vulnerable,916222.0,19.5908,83.9575
34,Khasi,India,IND,Vulnerable,912000.0,25.691,91.8676
35,Bodo,India,IND,Vulnerable,900000.0,26.7554,92.8674
36,Campidanese,Italy,ITA,Definitely endangered,900000.0,39.2991,8.9868
37,K'iche' (Guatemala),Guatemala,GTM,Vulnerable,890596.0,15.0309,-91.1485
38,Quechua of Ayacucho,Peru,PER,Definitely endangered,850000.0,-13.1276,-74.2071
39,Newar,Nepal,NPL,Definitely endangered,825458.0,27.6981,85.3198
40,Mon,"Myanmar, Thailand","MMR, THA",Vulnerable,800000.0,16.4666,97.7833
41,Polesian,"Belarus, Poland, Ukraine","BRB, POL, UKR",Vulnerable,800000.0,51.8629,23.9501
42,Tamaceq,Mali,MLI,Definitely endangered,800000.0,16.7992,-3.0102
43,Avar,Russian Federation,RUS,Vulnerable,784840.0,42.4801,46.8017
44,Mundari,India,IND,Vulnerable,750000.0,22.3297,86.0449
45,Welsh,United Kingdom of Great Britain and Northern Ireland,GBR,Vulnerable,750000.0,52.4459,-3.5485
46,Angika,"India, Nepal","IND, NPL",Vulnerable,740892.0,24.7451,85.3124
47,Q'eqchi' (Guatemala),Guatemala,GTM,Vulnerable,716101.0,15.4707,-90.3722
48,Picard,"Belgium, France","BEL, FRA",Severely endangered,700000.0,50.2331,2.7905
49,Kokborok,"Bangladesh, India","BGD, IND",Vulnerable,695000.0,23.7752,91.6918
50,Basque,"Spain, France","ESP, FRA",Vulnerable,660000.0,43.133,-2.0764
51,Kabard-Cherkes,"Russian Federation, Turkey","RUS, TUR",Vulnerable,650000.0,43.7393,43.4289
52,Mandeali,India,IND,Definitely endangered,611930.0,31.4099,76.9921
53,Friulian,Italy,ITA,Definitely endangered,600000.0,46.1037,13.1396
54,Quechua of Ancash and Huánuco,Peru,PER,Definitely endangered,600000.0,-9.4598,-77.1789
55,Walloon,"Belgium, France, Luxembourg","BEL, FRA, LUX",Definitely endangered,600000.0,50.4575,4.8559
56,Mising,India,IND,Definitely endangered,550000.0,26.9612,94.0539
57,Ossete,"Georgia, Russian Federation","GEO, RUS",Vulnerable,550000.0,42.9564,44.4946
58,Mizo,India,IND,Vulnerable,529000.0,22.9988,92.9223
59,Dargwa,Russian Federation,RUS,Vulnerable,503523.0,42.1145,47.4938
60,Aromanian,"Albania, Bulgaria, Greece, The former Yugoslav Republic of Macedonia, Serbia","ALB, BGR, GRC, MKD, SRB",Definitely endangered,500000.0,40.2292,21.1376
61,Brahui,"Iran (Islamic Republic of), Pakistan, Afghanistan","IRN, PAK, AFG",Vulnerable,500000.0,29.0369,66.5826
62,Languedocian,France,FRA,Severely endangered,500000.0,43.8899,2.5378
63,Lezgian,"Azerbaijan, Russian Federation","AZE, RUS",Vulnerable,500000.0,41.4921,48.0541
64,Mahasui,India,IND,Definitely endangered,496024.0,31.2738,77.1295
65,Magar,Nepal,NPL,Definitely endangered,489383.0,28.0816,83.4301
66,Mam (Guatemala),Guatemala,GTM,Vulnerable,477717.0,14.9305,-91.9078
67,Udmurt,Russian Federation,RUS,Definitely endangered,463837.0,57.2315,52.8662
68,Huasteca Náhuatl,Mexico,MEX,Vulnerable,463183.0,21.3835,-98.9902
69,Kumyk,Russian Federation,RUS,Vulnerable,458121.0,43.397,46.9775
70,Yakut,Russian Federation,RUS,Vulnerable,456288.0,62.3496,130.8691
71,Kaqchikel (Guatemala),Guatemala,GTM,Vulnerable,444954.0,14.7814,-90.7925
72,Karbi,India,IND,Vulnerable,420000.0,26.2934,93.2299
73,Eastern Mari,Russian Federation,RUS,Definitely endangered,414211.0,56.632,47.8784
74,Ingush,Russian Federation,RUS,Vulnerable,405343.0,43.145,45.1043
75,Erzya,Russian Federation,RUS,Definitely endangered,400000.0,54.1302,45.4394
76,Ho,India,IND,Vulnerable,400000.0,21.637,86.4404
77,Judezmo (Israel),Israel,ISR,Severely endangered,400000.0,32.0872,34.7737
78,Lalo,China,CHN,Vulnerable,400000.0,25.383,99.9426
79,Limousin,France,FRA,Severely endangered,400000.0,46.0579,1.8017
80,Logudorese,Italy,ITA,Definitely endangered,400000.0,40.1116,9.1845
81,Mapuche (Chile),Chile,CHL,Definitely endangered,400000.0,-38.5653,-73.081
82,Central Náhuatl,Mexico,MEX,Vulnerable,395581.0,19.191,-99.0236
83,Moselle Franconian,"Germany, Belgium, France, Luxembourg","DEU, BEL, FRA, LUX",Vulnerable,390000.0,49.6071,6.1248
84,Bantawa,Nepal,NPL,Vulnerable,371056.0,27.0994,87.0048
85,Santa,China,CHN,Vulnerable,360000.0,35.5411,102.7935
86,Mingrelian,Georgia,GEO,Definitely endangered,350000.0,42.4599,41.7205
87,West Frisian,Netherlands,NLD,Vulnerable,350000.0,53.1006,5.6579
88,Gurung,Nepal,NPL,Definitely endangered,338925.0,28.275,84.1782
89,Guajiro,"Colombia, Venezuela (Bolivarian Republic of)","COL, VEN",Vulnerable,318500.0,11.8673,-71.9824
90,Karachay-Balkar,Russian Federation,RUS,Vulnerable,302748.0,44.2137,42.8466
91,Adyge,"Iraq, Israel, Jordan, The former Yugoslav Republic of Macedonia, Russian Federation, Syrian Arab Republic, Turkey","IRQ, ISR, JOR, MKD, RUS, SYR, TUR",Vulnerable,300000.0,44.9181,39.7485
92,Buryat (Trans-Baikal),Russian Federation,RUS,Definitely endangered,300000.0,50.8336,109.5117
93,Kurru,India,IND,Definitely endangered,300000.0,16.6151,81.6284
94,Kuvi,India,IND,Definitely endangered,300000.0,18.9478,83.5839
95,Limbu,"India, Nepal","IND, NPL",Definitely endangered,300000.0,27.096,87.7356
96,Moroccan Judeo-Arabic (Israel),Israel,ISR,Definitely endangered,300000.0,32.0476,34.7552
97,Plautdietsch,Ukraine,UKR,Definitely endangered,300000.0,47.0738,35.5545
98,Pontic Greek,"Armenia, Georgia, Greece, Russian Federation, Turkey, Ukraine","ARM, GEO, GRC, RUS, TUR, UKR",Definitely endangered,300000.0,40.847,40.0149
99,"Quichua (Cotopaxi, Tungurahua and Chimborazo)",Ecuador,ECU,Definitely endangered,300000.0,-1.8673,-78.9257
100,Waxiang,China,CHN,Vulnerable,300000.0,28.5652,110.3576
101,Oyrat,"China, Kyrgyzstan, Mongolia","CHN, KGZ, MNG",Definitely endangered,280000.0,46.195,88.7255
102,Garhwali,India,IND,Vulnerable,279500.0,30.0976,79.1235
103,Bade,Nigeria,NGA,Vulnerable,250000.0,12.801,11.1181
104,Breton,France,FRA,Severely endangered,250000.0,48.2246,-3.9331
105,Gascon,"Spain, France","ESP, FRA",Definitely endangered,250000.0,43.1811,-0.1428
106,Phula (China),China,CHN,Vulnerable,250000.0,22.6001,104.0004
107,Sora,India,IND,Vulnerable,250000.0,19.1244,83.2104
108,Konyak,India,IND,Vulnerable,248000.0,26.9367,95.1745
109,Ao,India,IND,Vulnerable,243000.0,26.4361,94.6472
110,Tuvan,"China, Mongolia, Russian Federation","CHN, MNG, RUS",Vulnerable,242754.0,51.7134,94.3945
111,Nafusi,Libyan Arab Jamahiriya,LBY,Severely endangered,240000.0,32.6393,13.4252
112,Suret,"Armenia, Iran (Islamic Republic of), Iraq, Syrian Arab Republic, Turkey","ARM, IRN, IRQ, SYR, TUR",Definitely endangered,240000.0,36.4477,43.2971
113,Malto,India,IND,Definitely endangered,224926.0,23.7853,85.4736
114,Khowar,Pakistan,PAK,Vulnerable,222800.0,35.8667,71.7956
115,Maiya,Pakistan,PAK,Vulnerable,220000.0,35.3151,72.908
116,Komi,Russian Federation,RUS,Definitely endangered,217316.0,62.3087,51.5917
117,Alpine Provençal,"France, Italy","FRA, ITA",Definitely endangered,200000.0,44.7467,6.6796
118,Gallo,France,FRA,Severely endangered,200000.0,47.931,-2.0544
119,Gera,Nigeria,NGA,Vulnerable,200000.0,10.5553,10.0579
120,Irula,India,IND,Vulnerable,200000.0,11.4369,76.5032
121,Kharia,India,IND,Vulnerable,200000.0,21.8003,85.4956
122,Khorasani Turk,Iran (Islamic Republic of),IRN,Vulnerable,200000.0,36.6596,57.854
123,Korku,India,IND,Vulnerable,200000.0,20.3034,80.2441
124,Moksha,Russian Federation,RUS,Definitely endangered,200000.0,54.1817,43.2751
125,Western Armenian (Middle East),"Iraq, Lebanon, Syrian Arab Republic","IRQ, LBN, SYR",Definitely endangered,200000.0,33.884,35.5133
126,Western Cham,Cambodia,KHM,Vulnerable,200000.0,12.0333,105.4333
127,Tshangla,"Bhutan, China, India","BTN, CHN, IND",Vulnerable,193000.0,27.1275,91.9335
128,Thado,India,IND,Vulnerable,191000.0,24.4521,93.2354
129,Gagauz (Bessarabia),"Republic of Moldova, Ukraine","MDA, UKR",Definitely endangered,180000.0,46.0922,28.7951
130,Kului,India,IND,Definitely endangered,170770.0,31.4403,77.1487
131,Adi,"China, India","CHN, IND",Vulnerable,170000.0,28.3527,95.2294
132,Lhota,India,IND,Vulnerable,170000.0,26.1603,94.3725
133,Nyishi,India,IND,Vulnerable,170000.0,27.5277,93.0981
134,Ngäbere (Panama),Panama,PAN,Vulnerable,169130.0,9.3395,-82.2428
135,Kodagu,India,IND,Definitely endangered,166187.0,11.6952,75.9375
136,Corsican,"France, Italy","FRA, ITA",Definitely endangered,160000.0,42.0819,9.0307
137,Dzongkha,Bhutan,BTN,Vulnerable,160000.0,27.44,89.6731
138,Kalmyk,Russian Federation,RUS,Definitely endangered,153602.0,46.2026,45.8239
139,Lak,Russian Federation,RUS,Vulnerable,153373.0,42.0125,47.2521
140,Asturian-Leonese,"Spain, Portugal","ESP, PRT",Definitely endangered,150000.0,42.7954,-5.6689
141,Latgalian,"Latvia, Russian Federation","LVA, RUS",Vulnerable,150000.0,56.1822,27.1362
142,Provençal,France,FRA,Severely endangered,150000.0,43.5485,6.1083
143,Rabha,India,IND,Vulnerable,150000.0,25.9284,90.9777
144,Tamzabit,Algeria,DZA,Vulnerable,150000.0,32.4816,3.6694
145,Sherpa,"China, India, Nepal","CHN, IND, NPL",Vulnerable,143693.0,27.739,86.839
146,Tangkhul,India,IND,Vulnerable,142000.0,25.0358,94.4824
147,Q'aanjob'al,Guatemala,GTM,Vulnerable,139830.0,15.6019,-91.4441
148,Badaga,India,IND,Definitely endangered,134514.0,11.3642,76.5266
149,Angami,India,IND,Vulnerable,132000.0,25.7553,94.1308
150,Laz,"Georgia, Turkey","GEO, TUR",Definitely endangered,130000.0,41.2736,41.2646
151,Tabasaran,Russian Federation,RUS,Vulnerable,128391.0,41.8081,47.9882
152,Chambeali,India,IND,Definitely endangered,126589.0,32.9072,76.5307
153,Abkhaz,"Georgia, Russian Federation, Turkey","GEO, RUS, TUR",Vulnerable,125000.0,43.133,40.8471
154,Phom,India,IND,Vulnerable,123000.0,26.7799,94.9493
155,Kolami,India,IND,Definitely endangered,121855.0,20.5093,78.1787
156,Navajo,United States of America,USA,Vulnerable,120000.0,35.8044,-108.475
157,Sassarese,Italy,ITA,Definitely endangered,120000.0,40.6139,8.6132
158,Tamahaq (Algeria),Algeria,DZA,Vulnerable,120000.0,22.8369,5.5371
159,Konda,India,IND,Definitely endangered,118597.0,18.2763,82.9385
160,Sierra Totonac,Mexico,MEX,Severely endangered,118367.0,20.2461,-97.6586
161,Jaunsari,India,IND,Definitely endangered,114733.0,30.4859,78.0908
162,Dimasa,India,IND,Vulnerable,112000.0,24.7368,92.9003
163,Ladakhi,"China, India","CHN, IND",Vulnerable,105000.0,34.0617,77.5909
164,Salar,China,CHN,Vulnerable,104503.0,36.2752,102.4584
165,Simi,India,IND,Vulnerable,104000.0,25.9777,94.5922
166,Phurhepecha,Mexico,MEX,Vulnerable,102988.0,19.3111,-102.041
167,Crimean Tatar (Crimea),Ukraine,UKR,Severely endangered,100000.0,45.3212,34.3212
168,Dagur (Nonni),China,CHN,Definitely endangered,100000.0,47.9163,124.1235
169,Francoprovençal,"France, Italy, Switzerland","FRA, ITA, CHE",Definitely endangered,100000.0,45.7828,6.9982
170,Gallurese,Italy,ITA,Definitely endangered,100000.0,40.8802,9.4482
171,Mapuche (Argentina),Argentina,ARG,Severely endangered,100000.0,-40.0791,-71.0156
172,Mehri,"Oman, Yemen","OMN, YEM",Definitely endangered,100000.0,16.5993,52.8057
173,Miskito (Nicaragua),Nicaragua,NIC,Vulnerable,100000.0,12.4001,-83.7332
174,Ordos,China,CHN,Definitely endangered,100000.0,39.1641,108.1054
175,Quechua of Northern Bolivia,Bolivia (Plurinational State of),BOL,Vulnerable,100000.0,-15.3649,-69.0518
176,Suba,"Kenya, United Republic of Tanzania","KEN, TZA",Vulnerable,100000.0,-0.9942,34.519
177,Garífuna (Honduras),Honduras,HND,Vulnerable,98000.0,15.6754,-88.1476
178,Embera (Colombia),Colombia,COL,Vulnerable,95000.0,6.1624,-76.8383
179,Kabui,India,IND,Vulnerable,95000.0,24.7218,93.6584
180,Shughni,"Tajikistan, Afghanistan","TJK, AFG",Vulnerable,95000.0,37.4879,71.5374
181,Permyak,Russian Federation,RUS,Definitely endangered,94328.0,59.204,54.5361
182,Poqomchi',Guatemala,GTM,Vulnerable,92941.0,15.3757,-90.4288
183,Yimchungru,India,IND,Vulnerable,92000.0,25.9629,94.9713
184,Nogay (Caucasus),Russian Federation,RUS,Definitely endangered,90020.0,43.8028,46.2744
185,Heiban,Sudan,SDN,Vulnerable,90000.0,10.8575,30.2371
186,Quichua (Cañar and Azuay),Ecuador,ECU,Severely endangered,90000.0,-2.6577,-78.8378
187,Mezquital Otomí,Mexico,MEX,Definitely endangered,88789.0,20.4831,-99.217
188,Eastern Mazahua,Mexico,MEX,Definitely endangered,88001.0,19.7129,-99.9515
189,Burushaski,Pakistan,PAK,Vulnerable,87000.0,35.909,74.2153
190,Central Otomí,Mexico,MEX,Definitely endangered,84593.0,19.4661,-99.5944
191,Chokri,India,IND,Vulnerable,84000.0,25.8691,94.7131
192,Sangtam,India,IND,Vulnerable,84000.0,26.6032,94.9603
193,Ixil (Guatemala),Guatemala,GTM,Vulnerable,83574.0,15.4849,-91.0358
194,Achi',Guatemala,GTM,Vulnerable,82640.0,15.0845,-90.4888
195,Yem,Ethiopia,ETH,Vulnerable,81613.0,7.6347,37.3205
196,Mao,India,IND,Vulnerable,81000.0,25.5027,94.2681
197,Arbëresh,Italy,ITA,Definitely endangered,80000.0,40.9321,14.8645
198,Lari,Iran (Islamic Republic of),IRN,Definitely endangered,80000.0,27.8585,54.8547
199,Páez,Colombia,COL,Definitely endangered,80000.0,2.8237,-76.3117
200,Quechua of Santiago del Estero,Argentina,ARG,Definitely endangered,80000.0,-26.7848,-63.6767
201,Svan,Georgia,GEO,Definitely endangered,80000.0,43.0207,42.3193
202,Tai Daeng,"Lao People's Democratic Republic, Viet Nam","LAO, VNM",Vulnerable,80000.0,19.8833,104.6166
203,Taznatit,Algeria,DZA,Severely endangered,80000.0,29.3413,0.3955
204,Razihi,Yemen,YEM,Definitely endangered,75000.0,16.8834,43.2655
205,Wakhi,"China, Pakistan, Tajikistan, Afghanistan","CHN, PAK, TJK, AFG",Definitely endangered,75000.0,37.1603,74.9047
206,Bishnupriya Manipuri Creole,"Bangladesh, India","BGD, IND",Vulnerable,72899.0,24.297,92.4499
207,Acheron,Sudan,SDN,Severely endangered,70000.0,10.809,30.2453
208,Maori,New Zealand,NZL,Vulnerable,70000.0,-38.4105,177.3632
209,Tai Neua,Lao People's Democratic Republic,LAO,Vulnerable,70000.0,20.5166,104.3166
210,Bhadravahi,"India, Pakistan","IND, PAK",Definitely endangered,66918.0,33.5413,76.333
211,Kinnauri,India,IND,Definitely endangered,65097.0,31.541,78.3764
212,Gallo-Sicilian,Italy,ITA,Definitely endangered,65000.0,38.0167,14.5994
213,Kurux (Bangladesh),Bangladesh,BGD,Vulnerable,65000.0,25.8196,88.9672
214,Tz'utujil,Guatemala,GTM,Definitely endangered,63237.0,14.6394,-91.2301
215,Chamorro,Guam (U.S.A.),GUM,Vulnerable,62500.0,13.4323,144.7338
216,Ashaninka (Peru),Peru,PER,Vulnerable,62468.0,-10.6929,-74.3444
217,Chang,India,IND,Vulnerable,62000.0,26.2934,94.9493
218,Kuna (Panama),Panama,PAN,Vulnerable,61703.0,9.5983,-79.6334
219,Churahi,India,IND,Definitely endangered,61199.0,33.1835,76.5747
220,Nruanghmei,India,IND,Vulnerable,61000.0,24.9661,93.5375
221,Rengma,India,IND,Vulnerable,61000.0,25.958,94.2462
222,Faroese,Faroe Islands,FRO,Vulnerable,60000.0,62.0112,-6.7785
223,Northern Tujia,China,CHN,Severely endangered,60000.0,28.828,109.5904
224,Torwali,Pakistan,PAK,Definitely endangered,60000.0,35.5833,72.5
225,Chuj (Guatemala),Guatemala,GTM,Vulnerable,59048.0,15.8259,-91.4783
226,Kachari,India,IND,Definitely endangered,59000.0,25.2844,93.2189
227,Scottish Gaelic,United Kingdom of Great Britain and Northern Ireland,GBR,Definitely endangered,58552.0,58.1011,-6.7675
228,Sierra de Puebla Náhuatl,Mexico,MEX,Definitely endangered,57189.0,19.6223,-97.8149
229,Limonese Creole,Costa Rica,CRI,Definitely endangered,55000.0,9.9916,-83.0316
230,Kashubian,Poland,POL,Severely endangered,53000.0,54.2267,18.1713
231,Khakas,Russian Federation,RUS,Definitely endangered,52217.0,53.7746,90.3735
232,Parji,India,IND,Critically endangered,51216.0,18.5629,82.8039
233,Arvanitika,Greece,GRC,Severely endangered,50000.0,38.1863,23.6096
234,Buryat (Cis-Baikal),Russian Federation,RUS,Severely endangered,50000.0,52.7961,104.8809
235,Buryat (Manchuria),"China, Mongolia","CHN, MNG",Definitely endangered,50000.0,49.8096,119.7509
236,Cuona Menba,"Bhutan, China, India","BTN, CHN, IND",Vulnerable,50000.0,26.8279,95.3623
237,Eastern Cham,Viet Nam,VNM,Definitely endangered,50000.0,10.7833,108.0833
238,Hmar,India,IND,Vulnerable,50000.0,24.577,93.3178
239,Huzhu Monguor,China,CHN,Severely endangered,50000.0,36.7608,102.4255
240,Paite,India,IND,Vulnerable,50000.0,24.1968,93.3563
241,Quichua (Imbabura),Ecuador,ECU,Definitely endangered,50000.0,0.1757,-78.2006
242,Soqotri,Yemen,YEM,Severely endangered,50000.0,12.5331,53.767
243,Southern Altay,Russian Federation,RUS,Definitely endangered,50000.0,51.069,86.5942
244,Transylvanian Saxon,Romania,ROU,Severely endangered,50000.0,46.214,24.2413
245,Turoyo,"Syrian Arab Republic, Turkey","SYR, TUR",Severely endangered,50000.0,37.405,41.3745
246,Võro-Seto,"Estonia, Russian Federation","EST, RUS",Definitely endangered,50000.0,57.8096,27.29
247,West Greenlandic,Greenland (Kingdom of Denmark),GRL,Vulnerable,50000.0,64.1681,-51.7236
248,Western Armenian (Turkey),Turkey,TUR,Definitely endangered,50000.0,41.0213,28.9324
249,Zaramo,United Republic of Tanzania,TZA,Definitely endangered,50000.0,-6.922,39.2409
250,Zenatiya,Algeria,DZA,Critically endangered,50000.0,35.5702,1.8099
251,Papantla Totonac,Mexico,MEX,Definitely endangered,49748.0,20.4477,-97.32
252,Wancho,India,IND,Vulnerable,49000.0,26.9759,95.4656
253,Bhumji,India,IND,Vulnerable,47000.0,21.8003,86.8139
254,Cosung (China),China,CHN,Definitely endangered,47000.0,22.6833,102.6666
255,Cosung (Viet Nam),Viet Nam,VNM,Definitely endangered,47000.0,22.6166,102.75
256,Baheng (China),China,CHN,Vulnerable,45000.0,26.19,110.24
257,Lumun,Sudan,SDN,Definitely endangered,45000.0,10.8387,30.0338
258,Quichua (Loja),Ecuador,ECU,Severely endangered,45000.0,-3.6236,-79.2388
259,Chamling,Nepal,NPL,Definitely endangered,44093.0,27.0499,86.7329
260,Irish,"Ireland, United Kingdom of Great Britain and Northern Ireland","IRL, GBR",Definitely endangered,44000.0,53.7876,-9.1845
261,Reshe,Nigeria,NGA,Vulnerable,44000.0,10.8791,4.6115
262,Sierra Otomí,Mexico,MEX,Vulnerable,43468.0,20.1021,-97.622
263,Phuthi,Lesotho,LSO,Definitely endangered,43000.0,-29.3791,28.2838
264,Rarotongan,Cook Islands,COK,Vulnerable,43000.0,-21.2343,-159.7837
265,Khalaj,Iran (Islamic Republic of),IRN,Vulnerable,42100.0,34.3751,50.3063
266,Dungan,"Kazakhstan, Kyrgyzstan","KAZ, KGZ",Definitely endangered,41000.0,42.4518,78.4643
267,Kheza,India,IND,Vulnerable,41000.0,25.6811,94.367
268,Jola-Kassa,Senegal,SEN,Vulnerable,40850.0,13.1089,-15.8999
269,Satār,Nepal,NPL,Vulnerable,40260.0,26.5541,87.918
270,Guaraní Boliviano,"Argentina, Bolivia (Plurinational State of)","ARG, BOL",Vulnerable,40000.0,-20.1694,-63.8525
271,Gutob,India,IND,Vulnerable,40000.0,18.7086,83.5839
272,Kheng,Bhutan,BTN,Vulnerable,40000.0,27.0786,91.0272
273,Laro,Sudan,SDN,Definitely endangered,40000.0,10.7685,29.902
274,Minyong,India,IND,Vulnerable,40000.0,28.2632,95.0537
275,Mru,Myanmar,MMR,Severely endangered,40000.0,21.7748,92.2741
276,Patani Malay,Thailand,THA,Vulnerable,40000.0,6.6482,100.0387
277,"Quechua of Cajatambo, Pasco and northern Junín",Peru,PER,Severely endangered,40000.0,-10.6147,-76.506
278,Quichua (Napo),Ecuador,ECU,Definitely endangered,40000.0,-0.6371,-77.1459
279,Tangsa,India,IND,Vulnerable,40000.0,27.4059,96.427
280,Tetserret,Niger,NER,Severely endangered,40000.0,15.4907,6.2072
281,Awajun,Peru,PER,Vulnerable,39000.0,-4.3464,-77.8271
282,Khiamngan,India,IND,Vulnerable,38000.0,26.0518,95.1031
283,Ngile,Sudan,SDN,Severely endangered,38000.0,10.7901,29.8635
284,Phunoi,Lao People's Democratic Republic,LAO,Vulnerable,37311.0,21.6833,102.1
285,Lower Mixe,Mexico,MEX,Vulnerable,37000.0,16.9616,-95.093
286,Maram,India,IND,Vulnerable,37000.0,25.185,93.9715
287,Western Mari,Russian Federation,RUS,Severely endangered,36822.0,56.3317,46.5545
288,Chepang,Nepal,NPL,Vulnerable,36807.0,27.7552,84.8144
289,Chontal Tabasco,Mexico,MEX,Severely endangered,36514.0,17.7607,-92.5936
290,Muji,China,CHN,Definitely endangered,36500.0,23.6,102.7333
291,Akatek (Guatemala),Guatemala,GTM,Vulnerable,35763.0,15.5724,-91.4218
292,Huichol,Mexico,MEX,Vulnerable,35724.0,22.65,-103.5833
293,Romansh,Switzerland,CHE,Definitely endangered,35095.0,46.5777,9.6954
294,Apatani,India,IND,Vulnerable,35000.0,27.5228,93.8177
295,Galo,India,IND,Vulnerable,35000.0,28.1688,94.7433
296,Korwa,India,IND,Vulnerable,35000.0,22.4922,84.1552
297,Shuar chicham,Ecuador,ECU,Definitely endangered,35000.0,-2.8826,-78.0303
298,Ticuna,"Brazil, Colombia, Peru","BRA, COL, PER",Definitely endangered,35000.0,-4.3464,-70.0048
299,Wanka Quechua,Peru,PER,Severely endangered,35000.0,-12.136,-75.2453
300,Sikuani,"Colombia, Venezuela (Bolivarian Republic of)","COL, VEN",Vulnerable,34614.0,3.4256,-68.8183
301,Jakaltek (Guatemala),Guatemala,GTM,Definitely endangered,34038.0,15.6685,-91.7111
302,Liangmai,India,IND,Vulnerable,34000.0,25.2794,93.6694
303,Zeme,India,IND,Vulnerable,34000.0,25.5027,93.5595
304,Highland Mazatec,Mexico,MEX,Vulnerable,33859.0,18.1307,-96.8436
305,Thangmi,Nepal,NPL,Definitely endangered,33500.0,27.6969,86.0057
306,Nocte,India,IND,Vulnerable,33000.0,27.1618,95.7952
307,Mayo,Mexico,MEX,Critically endangered,32869.0,26.9114,-109.6271
308,Lauje,Indonesia,IDN,Vulnerable,32000.0,-0.4531,119.9816
309,Danuwar,Nepal,NPL,Severely endangered,31849.0,26.9661,86.3223
310,Sirmaudi,India,IND,Critically endangered,31144.0,30.9823,77.1569
311,Abaza,"Russian Federation, Turkey","RUS, TUR",Definitely endangered,31000.0,44.1556,41.9368
312,Koch,India,IND,Definitely endangered,31000.0,25.7603,90.3955
313,Amis,China,CHN,Vulnerable,30000.0,23.4456,121.4483
314,Biak,Indonesia,IDN,Vulnerable,30000.0,-0.3076,131.2207
315,Bumthang,Bhutan,BTN,Vulnerable,30000.0,27.492,90.7159
316,Burgenland Croatian,"Austria, Hungary, Slovakia","AUT, HUN, SVK",Definitely endangered,30000.0,47.8435,16.5179
317,Dzhidi,Iran (Islamic Republic of),IRN,Definitely endangered,30000.0,33.5139,48.0102
318,Judeo-Berber (Israel),Israel,ISR,Severely endangered,30000.0,31.6767,34.5684
319,Kham,Nepal,NPL,Definitely endangered,30000.0,28.4321,82.9635
320,Ladin,Italy,ITA,Definitely endangered,30000.0,46.5531,11.8597
321,Lepcha,"Bhutan, India, Nepal","BTN, IND, NPL",Definitely endangered,30000.0,27.1153,88.4687
322,Maonan,China,CHN,Vulnerable,30000.0,24.8341,107.577
323,"Mok (Myanmar, Thailand)","Myanmar, Thailand","MMR, THA",Definitely endangered,30000.0,21.7333,99.7666
324,Moro,Sudan,SDN,Definitely endangered,30000.0,10.8872,30.1904
325,Mulam,China,CHN,Vulnerable,30000.0,24.6341,108.2895
326,North Saami,"Finland, Norway, Russian Federation, Sweden","FIN, NOR, RUS, SWE",Definitely endangered,30000.0,68.9099,22.9394
327,Quechua of Cajamarca,Peru,PER,Severely endangered,30000.0,-7.1772,-78.673
328,Quichua (Pastaza),Ecuador,ECU,Definitely endangered,30000.0,-1.7575,-76.8603
329,Rushani,"Tajikistan, Afghanistan","TJK, AFG",Definitely endangered,30000.0,37.8705,71.5979
330,Tagin,India,IND,Vulnerable,30000.0,28.038,94.2022
331,Tialo,Indonesia,IDN,Vulnerable,30000.0,0.4888,120.8935
332,Tidikelt,Algeria,DZA,Critically endangered,30000.0,26.8828,2.5488
333,Toba,Argentina,ARG,Definitely endangered,30000.0,-25.958,-59.0625
334,Tundra Nenets,Russian Federation,RUS,Definitely endangered,30000.0,67.5001,67.7856
335,Vojvodina Rusyn,"Croatia, Serbia","HRV, SRB",Definitely endangered,30000.0,45.6351,19.1903
336,Wuse,China,CHN,Vulnerable,30000.0,24.878,109.1053
337,Agul,Russian Federation,RUS,Definitely endangered,29399.0,41.7518,47.6875
338,Rutul,"Azerbaijan, Russian Federation","AZE, RUS",Definitely endangered,29383.0,41.5332,47.3181
339,Bateri,Pakistan,PAK,Definitely endangered,29000.0,34.9073,72.8675
340,Mzieme,India,IND,Vulnerable,29000.0,25.6019,93.8891
341,Ghale,Nepal,NPL,Vulnerable,28989.0,28.2501,84.718
342,Sierra Popoluca,Mexico,MEX,Vulnerable,28700.0,18.245,-94.76
343,Kurux (Nepal),Nepal,NPL,Vulnerable,28615.0,26.6032,87.2259
344,Deori,India,IND,Definitely endangered,28000.0,27.1911,94.1528
345,Soyaltepec Mazatec,Mexico,MEX,Vulnerable,27524.0,18.2499,-96.3995
346,Western Mazahua,Mexico,MEX,Definitely endangered,27037.0,19.4372,-100.3552
347,Sibe,China,CHN,Severely endangered,27000.0,43.6599,81.3427
348,Isthmus Náhuatl,Mexico,MEX,Vulnerable,26632.0,18.2209,-94.8382
349,Sunwar,Nepal,NPL,Vulnerable,26611.0,27.3485,86.2337
350,Mancagne,Senegal,SEN,Vulnerable,26450.0,12.7743,-15.6967
351,Gadaba,India,IND,Critically endangered,26262.0,18.3858,82.7819
352,Banat Bulgarian,"Romania, Serbia","ROU, SRB",Definitely endangered,25000.0,45.4832,20.9069
353,Csángó Hungarian,Romania,ROU,Severely endangered,25000.0,46.7925,27.1911
354,Koda,India,IND,Vulnerable,25000.0,22.1263,87.0776
355,Minhe Monguor,China,CHN,Definitely endangered,25000.0,36.4919,102.6452
356,Miskito (Honduras),Honduras,HND,Vulnerable,25000.0,15.3393,-84.6034
357,Olonetsian,"Finland, Russian Federation","FIN, RUS",Definitely endangered,25000.0,61.1273,32.8765
358,Saek,"Lao People's Democratic Republic, Thailand","LAO, THA",Definitely endangered,25000.0,19.3166,104.7833
359,Sioux,United States of America,USA,Vulnerable,25000.0,43.0588,-102.5244
360,Tamazight (Beni Iznassen),Morocco,MAR,Definitely endangered,25000.0,34.7506,-2.1917
361,Tsakhur,"Azerbaijan, Russian Federation","AZE, RUS",Definitely endangered,25000.0,41.6523,46.9775
362,Warao,"Guyana, Venezuela (Bolivarian Republic of)","GUY, VEN",Definitely endangered,25000.0,8.6027,-61.3806
363,Majhi,Nepal,NPL,Severely endangered,24664.0,27.9208,83.5082
364,Jone,China,CHN,Definitely endangered,24000.0,34.5947,103.5653
365,Andi,Russian Federation,RUS,Definitely endangered,23729.0,42.7308,46.2963
366,Guambiano,Colombia,COL,Definitely endangered,23462.0,2.6138,-76.3906
367,Anal,India,IND,Vulnerable,23000.0,24.1517,93.9385
368,Hawrami,"Iran (Islamic Republic of), Iraq","IRN, IRQ",Definitely endangered,23000.0,35.4259,46.2551
369,Juang,India,IND,Definitely endangered,23000.0,21.0742,85.6164
370,Tiwa,India,IND,Definitely endangered,23000.0,25.7801,92.5927
371,Embera (Panama),Panama,PAN,Vulnerable,22485.0,8.1179,-77.7429
372,Ediamat,Guinea-Bissau,GNB,Vulnerable,22025.0,12.2621,-16.5289
373,Mara,India,IND,Definitely endangered,22000.0,23.5237,92.9003
374,Maring,India,IND,Vulnerable,22000.0,24.6769,94.3835
375,Polci cluster,Nigeria,NGA,Definitely endangered,22000.0,9.9742,9.3328
376,Sarikoli,China,CHN,Definitely endangered,22000.0,37.9463,75.1272
377,Krongo,Sudan,SDN,Definitely endangered,21688.0,10.585,29.8883
378,Ashtiani,Iran (Islamic Republic of),IRN,Definitely endangered,21000.0,34.4861,51.0562
379,Khunsari,Iran (Islamic Republic of),IRN,Definitely endangered,21000.0,32.8795,51.6796
380,Semnani,Iran (Islamic Republic of),IRN,Definitely endangered,21000.0,34.8679,53.4924
381,Plains Cree,Canada,CAN,Vulnerable,20933.0,56.3544,-113.8345
382,Higher Reservoir Mazatec,Mexico,MEX,Vulnerable,20665.0,18.158,-96.7045
383,Chilchotla Mazatec,Mexico,MEX,Vulnerable,20585.0,18.2934,-96.7029
384,"Zapotec of the Valleys, middle northwest",Mexico,MEX,Definitely endangered,20448.0,17.05,-96.6333
385,Aluo,China,CHN,Definitely endangered,20000.0,25.9368,102.1839
386,Bangni,India,IND,Vulnerable,20000.0,28.0331,93.0651
387,Bru,Thailand,THA,Definitely endangered,20000.0,15.3174,105.4938
388,Cho-ca-nga-ca-kha,Bhutan,BTN,Definitely endangered,20000.0,27.4107,91.2277
389,Crimean Tatar (Dobruja),"Bulgaria, Romania","BGR, ROU",Severely endangered,20000.0,43.9414,28.3062
390,Dhimal,Nepal,NPL,Severely endangered,20000.0,26.6192,87.4635
391,Griko (Salento),Italy,ITA,Severely endangered,20000.0,40.1578,18.2208
392,Kaiowá Guarani,Brazil,BRA,Vulnerable,20000.0,-21.5812,-55.0759
393,Karelian (Karelia),"Finland, Russian Federation","FIN, RUS",Definitely endangered,20000.0,63.0474,33.4616
394,Khoirao,India,IND,Vulnerable,20000.0,25.2198,94.1583
395,Manchad,India,IND,Vulnerable,20000.0,32.6578,77.5415
396,Mariupolitan Greek,Ukraine,UKR,Severely endangered,20000.0,47.1364,37.5444
397,Padam,India,IND,Vulnerable,20000.0,28.2463,95.3668
398,Pemon (Venezuela),"Guyana, Venezuela (Bolivarian Republic of)","GUY, VEN",Vulnerable,20000.0,5.1347,-61.853
399,Tacenwit,Algeria,DZA,Vulnerable,20000.0,36.5703,2.2892
400,Tangwang,China,CHN,Definitely endangered,20000.0,35.7643,102.8979
401,Western Neo-Aramaic,Syrian Arab Republic,SYR,Definitely endangered,20000.0,33.8339,36.5405
402,Yaghnobi,Tajikistan,TJK,Definitely endangered,20000.0,38.5632,68.4475
403,Yaw,Myanmar,MMR,Definitely endangered,20000.0,21.6,94.8333
404,Yeyi,Botswana,BWA,Definitely endangered,20000.0,-19.4562,23.2031
406,Sorbian,Germany,DEU,Definitely endangered,19500.0,51.5001,14.4744
407,Biete,India,IND,Definitely endangered,19000.0,25.6514,93.2409
408,Hrangkhol,India,IND,Vulnerable,19000.0,24.1467,92.3071
409,Terena,Brazil,BRA,Severely endangered,19000.0,-20.2841,-55.4638
410,Kati,"Pakistan, Afghanistan","PAK, AFG",Definitely endangered,18700.0,35.3845,71.3177
411,Kulung,Nepal,NPL,Vulnerable,18686.0,27.518,86.9375
412,Kaingang,Brazil,BRA,Definitely endangered,18500.0,-28.1495,-52.4707
413,Lowland Mazatec,Mexico,MEX,Vulnerable,18389.0,18.0801,-96.5236
414,Vafsi,Iran (Islamic Republic of),IRN,Definitely endangered,18000.0,34.0867,49.8861
415,Bassari,Senegal,SEN,Vulnerable,17910.0,12.4419,-12.6617
416,Bayot,Senegal,SEN,Vulnerable,17150.0,12.4218,-16.4149
417,Pochuri,India,IND,Vulnerable,17000.0,25.6712,94.779
418,Tamahaq (Libya),Libyan Arab Jamahiriya,LBY,Definitely endangered,17000.0,24.9611,10.1733
419,Swampy Cree,Canada,CAN,Vulnerable,16685.0,53.9849,-97.7626
420,Koraga,India,IND,Critically endangered,16665.0,11.6952,75.6738
421,Oyda,Ethiopia,ETH,Vulnerable,16597.0,5.9438,36.6503
422,Pangvali,India,IND,Critically endangered,16285.0,33.4589,76.9152
423,Shipibo-Conibo,Peru,PER,Definitely endangered,16085.0,-8.4289,-74.6411
424,Amba,Uganda,UGA,Vulnerable,16000.0,0.6737,30.198
425,Tsez,Russian Federation,RUS,Definitely endangered,15356.0,42.2376,45.8734
426,Bonan,China,CHN,Definitely endangered,15000.0,36.089,102.843
427,Chrau,Viet Nam,VNM,Definitely endangered,15000.0,10.5634,107.1496
428,Dari,Iran (Islamic Republic of),IRN,Definitely endangered,15000.0,31.8402,54.1625
429,Dzala,Bhutan,BTN,Vulnerable,15000.0,27.7078,91.3623
430,Ersu,China,CHN,Definitely endangered,15000.0,28.7778,102.1277
431,Gangte,India,IND,Definitely endangered,15000.0,24.1968,93.587
432,Gurdu-Mbaaru,Nigeria,NGA,Severely endangered,15000.0,9.7415,10.4534
433,Ha-lung Tibetan,Nepal,NPL,Definitely endangered,15000.0,27.6831,87.8256
434,Hlersu,China,CHN,Vulnerable,15000.0,24.3789,102.046
435,Juk,Lao People's Democratic Republic,LAO,Definitely endangered,15000.0,15.3333,106.85
436,Kwama,Ethiopia,ETH,Vulnerable,15000.0,9.5465,34.2059
437,Laemae,China,CHN,Severely endangered,15000.0,26.4179,98.7758
438,Lavua,Thailand,THA,Definitely endangered,15000.0,18.4483,98.1848
439,Macushi (Brazil),Brazil,BRA,Vulnerable,15000.0,3.7765,-61.1279
440,Nahali,India,IND,Definitely endangered,15000.0,21.4735,74.0258
441,Naluo,China,CHN,Vulnerable,15000.0,26.5895,100.8506
442,Nyoe,Thailand,THA,Definitely endangered,15000.0,14.9102,104.6049
443,O'odham (Akimel),United States of America,USA,Definitely endangered,15000.0,33.059,-112.0479
444,O'odham (Tohono),United States of America,USA,Definitely endangered,15000.0,31.9186,-111.8798
445,Paiwan,China,CHN,Vulnerable,15000.0,22.4313,120.7809
446,Rao,China,CHN,Definitely endangered,15000.0,25.871,107.0476
447,Semai,Malaysia,MYS,Severely endangered,15000.0,4.3039,101.445
448,Shatt,Sudan,SDN,Severely endangered,15000.0,10.8117,29.7235
449,Siwi,Egypt,EGY,Definitely endangered,15000.0,29.1905,25.5322
450,Tagargrent,Algeria,DZA,Severely endangered,15000.0,30.9587,4.0209
451,Tayurayt,Algeria,DZA,Vulnerable,15000.0,36.5648,1.9061
452,Totoli,Indonesia,IDN,Vulnerable,15000.0,0.8953,120.2838
453,Aruaco,Colombia,COL,Vulnerable,14799.0,10.0986,-73.5424
454,Yakkha,Nepal,NPL,Critically endangered,14648.0,27.1908,87.3358
455,Kuruba,India,IND,Critically endangered,14613.0,11.4369,76.3549
456,Tuamotuan,French Polynesia (France),PYF,Definitely endangered,14400.0,-14.9354,-147.7455
457,Katla,Sudan,SDN,Definitely endangered,14208.0,11.7329,29.3939
458,Garífuna (Belize),Belize,BLZ,Vulnerable,14061.0,17.1833,-88.5833
459,Thulung,Nepal,NPL,Definitely endangered,14034.0,27.4534,86.6423
460,Bawm,"Bangladesh, India","BGD, IND",Definitely endangered,14000.0,22.1874,92.6477
461,Guajajara,Brazil,BRA,Vulnerable,14000.0,-4.8282,-46.8017
462,Niuean,Niue,NIU,Definitely endangered,14000.0,-19.0491,-169.8706
463,Uhunduni,Indonesia,IDN,Vulnerable,14000.0,-4.2054,137.031
464,Gusilay,Senegal,SEN,Vulnerable,13950.0,12.7019,-16.4382
465,Xavante,Brazil,BRA,Vulnerable,13303.0,-14.4832,-53.5305
466,Dondo,Indonesia,IDN,Vulnerable,13000.0,0.747,120.4266
467,Khampti,India,IND,Vulnerable,13000.0,27.8827,96.5093
468,Nalu,Guinea,GIN,Definitely endangered,13000.0,10.9523,-14.7629
469,Tagoi,Sudan,SDN,Severely endangered,13000.0,10.8252,30.1657
470,Karko,Sudan,SDN,Definitely endangered,12986.0,11.964,29.4186
471,San Mateo del Mar Huave,Mexico,MEX,Vulnerable,12667.0,16.2,-94.9833
472,Q'eqchi' (Belize),Belize,BLZ,Vulnerable,12366.0,16.8107,-88.3999
473,Kadaru,Sudan,SDN,Definitely endangered,12360.0,12.1789,30.2398
474,Mazatlán Mazatec,Mexico,MEX,Vulnerable,12340.0,18.033,-96.8999
475,Badiaranke,Guinea,GIN,Severely endangered,12205.0,12.4043,-13.5736
476,Alune,Indonesia,IDN,Vulnerable,12000.0,-3.0637,128.3752
477,Bangani,India,IND,Critically endangered,12000.0,29.8692,79.0686
478,Chamalal,Russian Federation,RUS,Definitely endangered,12000.0,42.5712,46.0739
479,Chru,Viet Nam,VNM,Vulnerable,12000.0,11.4666,109.05
480,Hill Miri,India,IND,Definitely endangered,12000.0,27.7078,94.0374
481,Jinuo,China,CHN,Definitely endangered,12000.0,21.4758,101.3111
482,Muya,China,CHN,Vulnerable,12000.0,30.2593,101.7497
483,Samei,China,CHN,Severely endangered,12000.0,25.0756,103.0133
484,Tajio,Indonesia,IDN,Vulnerable,12000.0,-0.0954,120.0173
485,Tobada',Indonesia,IDN,Extinct,12000.0,-2.019,119.4708
486,Yurt Tatar,Russian Federation,RUS,Definitely endangered,12000.0,46.3943,48.3288
487,Yaqui (Mexico),Mexico,MEX,Vulnerable,11806.0,27.6436,-110.296
488,Ch'orti' (Guatemala),Guatemala,GTM,Definitely endangered,11734.0,14.968,-89.2905
489,Filomeno Mata Totonac,Mexico,MEX,Vulnerable,11710.0,20.198,-97.7022
490,Northern Totonac,Mexico,MEX,Critically endangered,11529.0,20.2741,-97.955
491,Komo,"Ethiopia, Sudan","ETH, SDN",Definitely endangered,11500.0,9.0804,34.0905
492,Tuwuli,Ghana,GHA,Vulnerable,11400.0,7.0572,0.3845
493,Poqomam,Guatemala,GTM,Definitely endangered,11273.0,14.6455,-89.7274
494,Idu,"China, India","CHN, IND",Definitely endangered,11101.0,28.6496,95.8419
495,Kari'ña (Venezuela),Venezuela (Bolivarian Republic of),VEN,Severely endangered,11000.0,8.4941,-64.0942
496,Machiguenga,Peru,PER,Definitely endangered,11000.0,-11.8888,-72.9052
497,Piaroa (Venezuela),Venezuela (Bolivarian Republic of),VEN,Vulnerable,11000.0,4.5435,-66.7089
498,Tuvaluan,Tuvalu,TUV,Definitely endangered,11000.0,-8.5049,179.187
499,Waunana (Colombia),Colombia,COL,Vulnerable,11000.0,4.2806,-77.0581
500,Noon,Senegal,SEN,Vulnerable,10925.0,14.8173,-16.5234
501,Sampang,Nepal,NPL,Vulnerable,10810.0,27.257,86.9444
502,Central Alaskan Yupik (2),United States of America,USA,Vulnerable,10400.0,61.4387,-160.4882
503,Central Alaskan Yupik (Nuniak Island),United States of America,USA,Vulnerable,10400.0,59.8889,-166.289
504,Bukiyip,Papua New Guinea,PNG,Vulnerable,10304.0,-3.4256,143.0886
505,Saparua,Indonesia,IDN,Definitely endangered,10216.0,-3.5757,128.6464
506,Darai,Nepal,NPL,Severely endangered,10210.0,27.9264,84.331
507,Bandial,Senegal,SEN,Vulnerable,10125.0,12.5317,-16.1553
508,Bongo,Sudan,SDN,Definitely endangered,10084.0,6.1405,31.7999
509,Northwestern Tarahumara,Mexico,MEX,Vulnerable,10031.0,27.9169,-107.0552
510,Algherese Catalan,Italy,ITA,Definitely endangered,10000.0,40.5638,8.3276
511,Aragonese,Spain,ESP,Definitely endangered,10000.0,42.2935,-0.4394
512,Baima,China,CHN,Vulnerable,10000.0,33.1531,103.8696
513,Bukharic,Uzbekistan,UZB,Definitely endangered,10000.0,39.8043,64.4224
514,Bunun,China,CHN,Vulnerable,10000.0,23.3624,121.1077
515,Burunge,United Republic of Tanzania,TZA,Vulnerable,10000.0,-4.7297,35.7769
516,Chayahuita,Peru,PER,Definitely endangered,10000.0,-5.3425,-76.6955
517,Cherokee (Oklahoma),United States of America,USA,Definitely endangered,10000.0,36.7544,-98.3569
518,Dalecarlian,Sweden,SWE,Definitely endangered,10000.0,61.2385,14.0295
519,"Huitoto (Colombia, Peru)","Colombia, Peru","COL, PER",Definitely endangered,10000.0,-3.0308,-71.8066
520,Hulaula (Israel),Israel,ISR,Severely endangered,10000.0,32.2128,34.9118
521,Karang,Chad,TCD,Vulnerable,10000.0,8.3093,15.3588
522,Karelian (Tver),Russian Federation,RUS,Definitely endangered,10000.0,58.1533,36.101
523,Karone,Senegal,SEN,Vulnerable,10000.0,12.7769,-16.7733
524,Kryz,Azerbaijan,AZE,Severely endangered,10000.0,41.1455,48.164
525,"Kurripako (Colombia, Venezuela)","Colombia, Venezuela (Bolivarian Republic of)","COL, VEN",Definitely endangered,10000.0,2.3723,-67.5659
526,Kurtöp,Bhutan,BTN,Vulnerable,10000.0,27.7127,90.9667
527,Lamgang,India,IND,Critically endangered,10000.0,24.2569,94.0759
528,Miqie,China,CHN,Definitely endangered,10000.0,26.9053,100.8506
529,Mojo,Bolivia (Plurinational State of),BOL,Definitely endangered,10000.0,-14.966,-65.1708
530,Muot,India,IND,Critically endangered,10000.0,8.0932,93.4963
531,Naiki,India,IND,Critically endangered,10000.0,19.8287,78.2281
532,Ñandeva Guarani,Brazil,BRA,Vulnerable,10000.0,-22.0652,-54.7558
533,Ngwaba,Nigeria,NGA,Severely endangered,10000.0,9.9904,12.81
534,North Frisian,Germany,DEU,Severely endangered,10000.0,54.7341,8.7478
535,Northern Khanty,Russian Federation,RUS,Definitely endangered,10000.0,63.7047,66.676
536,Nyah Kur,Thailand,THA,Definitely endangered,10000.0,15.6587,101.5068
537,Nyenkha,Bhutan,BTN,Vulnerable,10000.0,27.4595,90.4119
538,Orang Hulu,Malaysia,MYS,Definitely endangered,10000.0,1.8871,103.984
539,Otoro,Sudan,SDN,Severely endangered,10000.0,11.1864,30.6353
540,Solon,China,CHN,Definitely endangered,10000.0,48.166,119.4873
541,Southern Tujia,China,CHN,Severely endangered,10000.0,28.258,109.9398
542,Taba,Indonesia,IDN,Vulnerable,10000.0,0.0659,127.4084
543,Talu,China,CHN,Vulnerable,10000.0,26.5623,102.8506
544,Tamazight (Tunisia),Tunisia,TUN,Severely endangered,10000.0,36.0313,9.8767
545,Tayal,China,CHN,Vulnerable,10000.0,24.5458,121.3591
546,Temein,Sudan,SDN,Severely endangered,10000.0,11.8377,29.4625
547,Temiar,Malaysia,MYS,Definitely endangered,10000.0,4.9493,101.4113
548,Trukhmen,"Russian Federation, Turkmenistan","RUS, TKM",Definitely endangered,10000.0,44.4886,44.5385
549,Vidunda,United Republic of Tanzania,TZA,Vulnerable,10000.0,-6.8664,37.304
550,Kogui,Colombia,COL,Vulnerable,9911.0,10.8548,-74.0258
551,Paloor,Senegal,SEN,Vulnerable,9680.0,14.7801,-16.8035
552,Awakatek (Guatemala),Guatemala,GTM,Vulnerable,9613.0,15.3429,-91.312
553,Choctaw (Louisiana),United States of America,USA,Vulnerable,9500.0,31.6822,-92.1252
554,Choctaw (Mississipi),United States of America,USA,Vulnerable,9500.0,32.7713,-89.1163
555,Choctaw (Oklahoma),United States of America,USA,Vulnerable,9500.0,34.1472,-94.81
556,Gawar-Bati,"Pakistan, Afghanistan","PAK, AFG",Definitely endangered,9500.0,35.158,71.4083
557,Taruang,"China, India, Myanmar","CHN, IND, MMR",Vulnerable,9332.0,28.12,95.88
558,Khaling,Nepal,NPL,Definitely endangered,9288.0,27.5781,86.7163
559,Western Tarahumara,Mexico,MEX,Vulnerable,9196.0,27.3361,-108.5007
560,Nunavimmiutitut,Canada,CAN,Vulnerable,9105.0,58.1665,-68.3605
561,Woods Cree,Canada,CAN,Vulnerable,9095.0,55.1711,-102.9061
562,Phula (Viet Nam),Viet Nam,VNM,Definitely endangered,9046.0,22.7833,105.4666
563,Dol-po,Nepal,NPL,Definitely endangered,9000.0,29.2193,83.0676
564,Helong,Indonesia,IDN,Severely endangered,9000.0,-10.1905,123.5247
565,Lisela,Indonesia,IDN,Vulnerable,9000.0,-3.2392,127.0239
566,Motuo Menba,"China, India","CHN, IND",Definitely endangered,9000.0,28.664,94.0347
567,Panamahka,Nicaragua,NIC,Vulnerable,9000.0,14.2856,-84.5947
568,Zuni,United States of America,USA,Vulnerable,9000.0,35.082,-108.76
569,Mopán (Belize),Belize,BLZ,Severely endangered,8980.0,16.2449,-88.8654
570,Tulishi,Sudan,SDN,Severely endangered,8628.0,11.5984,29.0917
571,Central Cuicatec,Mexico,MEX,Vulnerable,8621.0,17.8,-96.961
572,Ts'amay,Ethiopia,ETH,Definitely endangered,8621.0,5.4382,37.2463
573,Phalura,Pakistan,PAK,Definitely endangered,8600.0,35.7264,71.7434
574,Northern Popoloc,Mexico,MEX,Vulnerable,8597.0,18.6818,-97.658
575,Ixcatlán Mazatec,Mexico,MEX,Vulnerable,8593.0,18.1447,-96.4855
576,Patla-Chicontla Totonac,Mexico,MEX,Severely endangered,8590.0,20.1644,-97.6927
577,Toram,Chad,TCD,Severely endangered,8456.0,11.1581,19.6023
578,Northwestern Tlapanec,Mexico,MEX,Vulnerable,8409.0,17.5595,-98.9332
579,Dene,Canada,CAN,Vulnerable,8195.0,56.4807,-109.4127
580,Micmac (Massachusetts),United States of America,USA,Definitely endangered,8145.0,42.3589,-71.0578
581,Argobba,Ethiopia,ETH,Critically endangered,8000.0,10.5958,39.9792
582,Austral dialects,French Polynesia (France),PYF,Definitely endangered,8000.0,-23.3775,-149.4909
583,Belanda Bor,Sudan,SDN,Definitely endangered,8000.0,6.4954,27.7404
584,Feroge,Sudan,SDN,Vulnerable,8000.0,8.5049,25.7189
585,Hachijō,Japan,JPN,Definitely endangered,8000.0,33.11,139.7891
586,Inga,Colombia,COL,Severely endangered,8000.0,1.1658,-77.0011
587,Kanga,Sudan,SDN,Severely endangered,8000.0,10.844,29.4708
588,Lajia,China,CHN,Definitely endangered,8000.0,23.7439,110.0526
589,Lakha,Bhutan,BTN,Definitely endangered,8000.0,27.5898,90.3735
590,Mbya Guarani (Paraguay),Paraguay,PRY,Definitely endangered,8000.0,-26.5099,-55.2832
591,Mundurukú,Brazil,BRA,Vulnerable,8000.0,-8.1027,-57.3486
592,Ojibwe,United States of America,USA,Severely endangered,8000.0,46.0706,-93.6677
593,Quichua (Salasaca),Ecuador,ECU,Definitely endangered,8000.0,-1.3511,-78.6511
594,Rongpo,India,IND,Vulnerable,8000.0,30.7229,79.7387
595,Sanyi,China,CHN,Severely endangered,8000.0,24.9262,102.5134
596,Temuan,Malaysia,MYS,Severely endangered,8000.0,3.3709,101.984
597,Tingal,Sudan,SDN,Definitely endangered,8000.0,12.238,31.1215
598,Wampis,Peru,PER,Vulnerable,8000.0,-3.4476,-77.7941
599,Wunai Bunu,China,CHN,Definitely endangered,8000.0,24.4146,107.8378
600,Yanesha,Peru,PER,Severely endangered,8000.0,-10.3743,-75.2343
601,Mam (Mexico),Mexico,MEX,Severely endangered,7977.0,17.3661,-93.5334
602,Pana,Burkina Faso,BFA,Definitely endangered,7800.0,13.165,-3.4277
603,Macushi (Guyana),Guyana,GUY,Vulnerable,7750.0,3.6888,-59.4799
604,Chukchi,Russian Federation,RUS,Severely endangered,7742.0,67.6248,176.1767
605,Cabécar,Costa Rica,CRI,Vulnerable,7622.0,9.9012,-83.6844
606,Awa Cuaiquer,Colombia,COL,Critically endangered,7500.0,1.4939,-78.5742
607,Lishana Deni (Israel),Israel,ISR,Severely endangered,7500.0,31.7748,35.1013
608,Central Pame,Mexico,MEX,Vulnerable,7399.0,21.9208,-99.3741
609,Puinave,"Colombia, Venezuela (Bolivarian Republic of)","COL, VEN",Definitely endangered,7377.0,4.434,-68.1591
610,Mebengokre,Brazil,BRA,Vulnerable,7266.0,-6.5569,-52.4707
611,Tunebo,"Colombia, Venezuela (Bolivarian Republic of)","COL, VEN",Definitely endangered,7231.0,6.4463,-72.0483
612,Quechua of Peruvian Amazonia,Peru,PER,Vulnerable,7200.0,-2.3723,-74.1137
613,Asur,India,IND,Definitely endangered,7000.0,22.4719,84.9023
614,Bashkardi,Iran (Islamic Republic of),IRN,Definitely endangered,7000.0,28.5169,57.7551
615,Burji,Kenya,KEN,Vulnerable,7000.0,2.1857,37.9248
616,Choyi,China,CHN,Definitely endangered,7000.0,30.8519,99.6659
617,Gazi,Iran (Islamic Republic of),IRN,Definitely endangered,7000.0,32.8036,51.6211
618,Guichong,China,CHN,Vulnerable,7000.0,30.8148,101.7021
619,Karagash,Russian Federation,RUS,Definitely endangered,7000.0,47.2643,47.2412
620,Natanzi,Iran (Islamic Republic of),IRN,Severely endangered,7000.0,33.452,51.3006
621,Nayini,Iran (Islamic Republic of),IRN,Severely endangered,7000.0,32.8519,53.1573
622,Parya,"Uzbekistan, Tajikistan, Afghanistan","UZB, TJK, AFG",Severely endangered,7000.0,38.5094,68.0932
623,Segeju,United Republic of Tanzania,TZA,Severely endangered,7000.0,-4.8173,39.0783
624,Sivandi,Iran (Islamic Republic of),IRN,Definitely endangered,7000.0,29.9168,51.5945
625,Soi,Iran (Islamic Republic of),IRN,Definitely endangered,7000.0,31.6533,55.6787
626,Tucano (Brazil),Brazil,BRA,Vulnerable,7000.0,0.1757,-67.2363
627,Wapishana (Guyana),Guyana,GUY,Vulnerable,7000.0,2.3065,-59.6997
628,Yulu,"Central African Republic, Democratic Republic of the Congo, Sudan","CAF, ZAI, SDN",Vulnerable,7000.0,8.3854,24.1754
629,Zhaba,China,CHN,Vulnerable,7000.0,31.4,100.4734
630,Sakapultek,Guatemala,GTM,Definitely endangered,6973.0,14.9752,-91.0527
631,Chara,Ethiopia,ETH,Vulnerable,6932.0,6.479,36.3647
632,Kosraean,"Micronesia (Federated States of), Nauru","FSM, NRU",Severely endangered,6900.0,5.322,162.9904
633,Waunana (Panama),Panama,PAN,Severely endangered,6882.0,8.2984,-78.1018
634,San Francisco del Mar Huave,Mexico,MEX,Critically endangered,6874.0,16.3333,-94.5166
635,Northern East Cree,Canada,CAN,Vulnerable,6870.0,53.6916,-78.8011
636,Micmac (Canada),Canada,CAN,Vulnerable,6850.0,45.9646,-60.6172
637,Northern Tepehuán,Mexico,MEX,Definitely endangered,6802.0,26.4258,-107.2683
638,Miju,"China, India","CHN, IND",Vulnerable,6700.0,28.1155,96.2896
639,Rio Grande Keresan,United States of America,USA,Definitely endangered,6685.0,35.5147,-106.3655
640,Western Mazatec,Mexico,MEX,Vulnerable,6639.0,18.1351,-96.9057
641,Bussa,Ethiopia,ETH,Vulnerable,6624.0,5.7225,37.1406
642,Beli,Sudan,SDN,Definitely endangered,6600.0,6.4736,29.2675
643,Chesu,China,CHN,Definitely endangered,6600.0,24.4211,102.0459
644,Thuri,Sudan,SDN,Vulnerable,6600.0,8.4397,25.4333
645,Karata,Russian Federation,RUS,Definitely endangered,6574.0,42.5874,46.3348
646,Saulteau,Canada,CAN,Vulnerable,6558.0,50.5573,-98.6562
647,Kumāle,Nepal,NPL,Severely endangered,6533.0,27.788,84.548
648,Lower Northwestern Otomí,Mexico,MEX,Vulnerable,6509.0,20.1865,-100.1469
649,Dimme,Ethiopia,ETH,Vulnerable,6501.0,5.9548,36.2988
650,Chiquitano (Bolivia),Bolivia (Plurinational State of),BOL,Definitely endangered,6500.0,-16.5835,-61.6113
651,Tumtum,Sudan,SDN,Severely endangered,6500.0,10.477,30.4321
652,Bezhta,Russian Federation,RUS,Definitely endangered,6461.0,42.1369,46.1508
653,Thakali,Nepal,NPL,Vulnerable,6441.0,28.7146,83.6478
654,Dongotono,Sudan,SDN,Vulnerable,6219.0,4.965,35.321
655,Mawé,Brazil,BRA,Vulnerable,6219.0,-3.8642,-56.7773
656,Shor,Russian Federation,RUS,Severely endangered,6210.0,53.0544,87.7478
657,Central Tlapanec,Mexico,MEX,Vulnerable,6191.0,17.2624,-98.7482
658,Oji-Cree,Canada,CAN,Vulnerable,6110.0,53.8141,-94.8977
659,Keiga,Sudan,SDN,Severely endangered,6072.0,11.3184,29.696
660,Ampibabo Lauje,Indonesia,IDN,Vulnerable,6000.0,0.3295,120.1904
661,Cashinahua (Brazil),Brazil,BRA,Vulnerable,6000.0,-9.2603,-71.5304
662,Geji cluster,Nigeria,NGA,Severely endangered,6000.0,10.196,9.5581
663,Mbya Guarani (Brazil),Brazil,BRA,Vulnerable,6000.0,-30.1451,-50.625
664,Moklen,"Myanmar, Thailand","MMR, THA",Definitely endangered,6000.0,8.1953,98.3036
665,Nauruan,Nauru,NRU,Severely endangered,6000.0,-0.53,166.9221
666,Nheengatu / Yeral (Brazil),Brazil,BRA,Severely endangered,6000.0,-0.4833,-67.0166
667,Parachi,Afghanistan,AFG,Definitely endangered,6000.0,34.4658,68.637
668,Quechua of San Martín,Peru,PER,Severely endangered,6000.0,-6.5336,-76.4428
669,Sawkna,Libyan Arab Jamahiriya,LBY,Critically endangered,6000.0,27.252,17.7539
670,Sulung,"China, India","CHN, IND",Definitely endangered,6000.0,27.839,92.8784
671,Tindi,Russian Federation,RUS,Definitely endangered,6000.0,42.466,46.1453
672,Western Apache,United States of America,USA,Definitely endangered,6000.0,33.2563,-110.4637
673,Yanomami (Brazil),Brazil,BRA,Vulnerable,6000.0,3.0746,-63.457
674,Yazgulami,Tajikistan,TJK,Severely endangered,6000.0,38.1982,71.4276
675,Chantyal,Nepal,NPL,Definitely endangered,5912.0,28.4493,83.4054
676,Mortlockese,Micronesia (Federated States of),FSM,Definitely endangered,5904.0,5.5811,153.5668
677,Baníwa do Içana,"Brazil, Colombia, Venezuela (Bolivarian Republic of)","BRA, COL, VEN",Vulnerable,5811.0,1.2743,-68.291
678,"Akawaio (Guyana, Venezuela)","Guyana, Venezuela (Bolivarian Republic of)","GUY, VEN",Definitely endangered,5800.0,5.3753,-60.5126
679,Akhvakh,Russian Federation,RUS,Definitely endangered,5793.0,42.472,46.3238
680,Veps,Russian Federation,RUS,Severely endangered,5753.0,60.3269,34.8046
681,Qikiqtaaluk nigiani,Canada,CAN,Vulnerable,5740.0,63.7577,-68.5178
682,Sipakapense,Guatemala,GTM,Definitely endangered,5687.0,15.2121,-91.6335
683,Bribri (Costa Rica),Costa Rica,CRI,Vulnerable,5647.0,9.5596,-83.3073
684,Bainouk-Gunyaamolo,Senegal,SEN,Vulnerable,5635.0,12.7421,-16.1141
685,Kwatay,Senegal,SEN,Severely endangered,5625.0,12.4204,-16.7596
686,Baheng (Viet Nam),Viet Nam,VNM,Vulnerable,5569.0,22.8166,106.35
687,Central Zoque,Mexico,MEX,Definitely endangered,5500.0,17.0965,-93.2095
688,Dameli,Pakistan,PAK,Severely endangered,5500.0,35.578,71.8684
689,Sak (Bangladesh),Bangladesh,BGD,Severely endangered,5500.0,21.5041,92.2055
690,Yidgha,Pakistan,PAK,Definitely endangered,5500.0,36.0024,71.6006
691,Southeastern Tarahumara,Mexico,MEX,Vulnerable,5406.0,26.0891,-106.9645
692,Chimané,Bolivia (Plurinational State of),BOL,Vulnerable,5300.0,-15.2629,-66.8518
693,Dilling,Sudan,SDN,Definitely endangered,5295.0,12.0178,29.663
694,San Dionisio del Mar Huave,Mexico,MEX,Definitely endangered,5165.0,16.3166,-94.75
695,Lafofa,Sudan,SDN,Severely endangered,5140.0,10.3716,30.6243
696,Akeu,"Lao People's Democratic Republic, Myanmar, Thailand","LAO, MMR, THA",Definitely endangered,5000.0,21.5833,101.0166
697,Anung (China),China,CHN,Critically endangered,5000.0,26.7368,98.7766
698,Bagvalal,Russian Federation,RUS,Definitely endangered,5000.0,42.5247,46.192
699,Bambassi,Ethiopia,ETH,Definitely endangered,5000.0,9.7469,34.7662
700,Barí,Colombia,COL,Vulnerable,5000.0,9.0261,-73.2678
701,Bartangi,Tajikistan,TJK,Severely endangered,5000.0,38.048,71.8286
702,Bokar,"China, India","CHN, IND",Vulnerable,5000.0,28.8735,94.3807
703,Brokpa,Bhutan,BTN,Definitely endangered,5000.0,27.3766,91.9981
704,Creek,United States of America,USA,Definitely endangered,5000.0,35.6319,-95.9616
705,Cubeo (Colombia),Colombia,COL,Vulnerable,5000.0,1.5,-70.5
706,Dagur (Hailar),China,CHN,Definitely endangered,5000.0,48.6111,119.7949
707,Damal,Indonesia,IDN,Vulnerable,5000.0,-4.2806,137.0324
708,Dhaiso,United Republic of Tanzania,TZA,Definitely endangered,5000.0,-5.0745,38.4741
709,Gorum,India,IND,Definitely endangered,5000.0,18.667,83.0346
710,Guarayu,Bolivia (Plurinational State of),BOL,Definitely endangered,5000.0,-15.919,-62.8747
711,Gutnish,Sweden,SWE,Definitely endangered,5000.0,57.3027,18.5284
712,Hopi,United States of America,USA,Vulnerable,5000.0,35.8721,-110.6205
713,Ilue,Nigeria,NGA,Critically endangered,5000.0,4.9185,8.2397
714,Jibbali,Oman,OMN,Severely endangered,5000.0,18.0623,52.4267
715,Kalasha,Pakistan,PAK,Severely endangered,5000.0,35.6684,71.7201
716,Kami,United Republic of Tanzania,TZA,Severely endangered,5000.0,-6.8937,37.1337
717,Kathu,China,CHN,Definitely endangered,5000.0,24.136,105.249
718,Khojki,Oman,OMN,Severely endangered,5000.0,23.6193,58.5653
719,Khwe,Namibia,NAM,Definitely endangered,5000.0,-18.271,21.4892
720,Kom,India,IND,Definitely endangered,5000.0,24.0414,93.6639
721,Korandje,Algeria,DZA,Severely endangered,5000.0,29.4049,-3.2605
722,Lachi,Viet Nam,VNM,Definitely endangered,5000.0,22.5,104.1333
723,Mak,China,CHN,Definitely endangered,5000.0,25.5532,107.3809
724,Manihiki,Cook Islands,COK,Definitely endangered,5000.0,-10.4,-161.0
725,Megleno-Romanian,"Greece, The former Yugoslav Republic of Macedonia","GRC, MKD",Severely endangered,5000.0,41.1042,22.2025
726,Miji,India,IND,Definitely endangered,5000.0,27.3351,92.5735
727,Mo'ang (China),China,CHN,Definitely endangered,5000.0,23.8421,103.9116
728,Mo'ang (Viet Nam),Viet Nam,VNM,Definitely endangered,5000.0,22.7833,105.3666
729,Molise Croatian,Italy,ITA,Severely endangered,5000.0,41.8787,14.7065
730,Moroccan Judeo-Arabic (Morocco),Morocco,MAR,Severely endangered,5000.0,34.0435,-5.0097
731,Namuyi,China,CHN,Vulnerable,5000.0,28.0727,101.9565
732,Padoe,Indonesia,IDN,Vulnerable,5000.0,-2.6467,121.2615
733,Patamona (Guyana),Guyana,GUY,Vulnerable,5000.0,4.5873,-59.8095
734,Pu,India,IND,Critically endangered,5000.0,8.2549,93.1022
735,Pume,Venezuela (Bolivarian Republic of),VEN,Definitely endangered,5000.0,6.7518,-68.247
736,Singpho,India,IND,Definitely endangered,5000.0,27.5569,96.7456
737,Turi,India,IND,Definitely endangered,5000.0,21.8411,87.2973
738,Udi (Azerbaijan),Azerbaijan,AZE,Severely endangered,5000.0,41.0689,47.4609
739,Yecuana (Venezuela),Venezuela (Bolivarian Republic of),VEN,Vulnerable,5000.0,4.8501,-64.5117
740,Jirel,Nepal,NPL,Definitely endangered,4919.0,27.6419,86.2123
741,Dolgan,Russian Federation,RUS,Definitely endangered,4865.0,71.3851,97.3388
743,Tsum,Nepal,NPL,Definitely endangered,4786.0,28.4723,85.008
744,Northern Tlapanec,Mexico,MEX,Vulnerable,4771.0,17.4203,-98.7814
745,Taroko,China,CHN,Vulnerable,4750.0,24.0916,121.5218
746,Kivallirmiutut,Canada,CAN,Vulnerable,4675.0,61.0982,-94.1201
747,Puebla Mazatec,Mexico,MEX,Vulnerable,4660.0,18.476,-96.8351
748,Zapotec of Petapa,Mexico,MEX,Definitely endangered,4613.0,16.8333,-95.1166
749,Dungmali,Nepal,NPL,Definitely endangered,4609.0,27.1874,87.1902
750,Saryg Yugur,China,CHN,Severely endangered,4600.0,39.2747,98.8439
751,Qikiqtaaluk uannangani,Canada,CAN,Vulnerable,4550.0,69.3878,-81.615
752,Afitti,Sudan,SDN,Severely endangered,4512.0,12.4419,30.7534
753,Nomatsiguenga,Peru,PER,Severely endangered,4500.0,-11.3292,-74.3664
754,Piapoko,"Colombia, Venezuela (Bolivarian Republic of)","COL, VEN",Definitely endangered,4500.0,4.0396,-68.0712
755,Tokelauan,Tokelau,TKL,Severely endangered,4500.0,-9.1699,-171.8206
756,Wotu,Indonesia,IDN,Vulnerable,4500.0,-2.6303,120.888
757,Wambule,Nepal,NPL,Vulnerable,4471.0,27.1746,86.4363
758,Southern East Cree,Canada,CAN,Vulnerable,4455.0,50.587,-73.6365
759,Arbore,Ethiopia,ETH,Definitely endangered,4441.0,5.069,36.892
760,Ebang,Sudan,SDN,Severely endangered,4412.0,11.313,30.5886
761,Tafi,Ghana,GHA,Vulnerable,4400.0,6.73,0.4421
762,Puma,Nepal,NPL,Severely endangered,4310.0,26.9692,86.9004
763,Gyele,"Cameroon, Equatorial Guinea","CMR, GNQ",Definitely endangered,4280.0,2.2241,9.8986
764,Bwisi,"Congo, Gabon","COG, GAB",Definitely endangered,4248.0,-3.5572,11.4477
765,Eastern Montagnais,Canada,CAN,Vulnerable,4180.0,50.2136,-66.193
766,Atikamekw,Canada,CAN,Vulnerable,4155.0,47.2104,-74.3827
767,Western Zoque,Mexico,MEX,Vulnerable,4100.0,16.9063,-91.7333
768,Acoma-Laguna,United States of America,USA,Definitely endangered,4000.0,34.8964,-107.5816
769,Aka,"India, Sudan","IND, SDN",Definitely endangered,4000.0,27.1666,92.6312
770,Baga Manduri,Guinea,GIN,Definitely endangered,4000.0,10.0986,-14.0405
771,Baga Sitemu,Guinea,GIN,Severely endangered,4000.0,10.1094,-14.1586
772,Botlikh,Russian Federation,RUS,Definitely endangered,4000.0,42.6602,46.2222
773,Bunan,India,IND,Definitely endangered,4000.0,32.7503,76.2451
774,Cashinahua (Peru),Peru,PER,Definitely endangered,4000.0,-10.3581,-71.5869
775,Cha'palaa,Ecuador,ECU,Definitely endangered,4000.0,0.9386,-79.0055
776,Evenki (Manchuria),China,CHN,Severely endangered,4000.0,50.34,123.43
777,Gazhuo,China,CHN,Definitely endangered,4000.0,24.0959,102.5463
778,Godoberi,Russian Federation,RUS,Definitely endangered,4000.0,42.643,46.1027
779,"Kari'ña (Guyana, Suriname)","Guyana, Suriname","GUY, SUR",Severely endangered,4000.0,6.8828,-60.2929
780,Lishan Didan (Israel),Israel,ISR,Severely endangered,4000.0,32.0383,34.7827
781,Maleng,Lao People's Democratic Republic,LAO,Definitely endangered,4000.0,18.0166,105.0
782,Napu,Indonesia,IDN,Vulnerable,4000.0,-1.2882,120.2536
783,Rahambuu,Indonesia,IDN,Vulnerable,4000.0,-3.1898,121.0858
784,Shingsaba,"China, Nepal","CHN, NPL",Vulnerable,4000.0,27.7163,87.4731
785,Sinkiang Dagur,China,CHN,Definitely endangered,4000.0,46.7737,83.0017
786,Taa,Botswana,BWA,Definitely endangered,4000.0,-24.1367,20.1049
787,Tennet,Sudan,SDN,Vulnerable,4000.0,4.8611,33.2226
788,Wapishana (Brazil),Brazil,BRA,Definitely endangered,4000.0,2.8113,-61.2377
789,Yagua,Peru,PER,Definitely endangered,4000.0,-3.3598,-72.3779
790,Yanomám,Brazil,BRA,Vulnerable,4000.0,3.3818,-63.8085
791,Yanomami (Venezuela),Venezuela (Bolivarian Republic of),VEN,Vulnerable,4000.0,2.5918,-64.7314
792,Younuo Bunu,China,CHN,Definitely endangered,4000.0,25.1463,106.5405
793,Zenaga (Mauritania),Mauritania,MRT,Severely endangered,4000.0,17.3086,-13.0078
794,Baghati,India,IND,Critically endangered,3976.0,31.194,77.0471
795,Bharmauri,India,IND,Definitely endangered,3976.0,32.4912,76.8383
796,Uspantek,Guatemala,GTM,Vulnerable,3971.0,15.3475,-90.8684
797,Khang Quang Lam,Viet Nam,VNM,Severely endangered,3921.0,22.0333,102.6666
798,Konni,Ghana,GHA,Vulnerable,3800.0,10.3311,-1.6973
799,Tocho,Sudan,SDN,Severely endangered,3800.0,10.8764,30.1135
800,Mixtec of the Puebla-Oaxaca border,Mexico,MEX,Definitely endangered,3791.0,18.1333,-97.6833
801,Nupri,Nepal,NPL,Definitely endangered,3776.0,28.6384,84.6079
802,Ayoreo,Bolivia (Plurinational State of),BOL,Definitely endangered,3700.0,-18.719,-59.6228
803,Moyon,India,IND,Definitely endangered,3700.0,24.4171,94.378
804,Utsat,China,CHN,Definitely endangered,3700.0,18.2727,109.3871
805,Nayi,Ethiopia,ETH,Vulnerable,3656.0,7.2698,36.1724
806,Mussau-Emira,Papua New Guinea,PNG,Definitely endangered,3651.0,-1.4774,149.6392
807,Narim,Sudan,SDN,Definitely endangered,3623.0,4.9048,34.2224
808,Garífuna (Guatemala),Guatemala,GTM,Vulnerable,3564.0,15.8268,-88.7506
809,Nachiring,Nepal,NPL,Severely endangered,3553.0,27.4144,86.7521
810,Eastern Popoloc,Mexico,MEX,Vulnerable,3544.0,18.3322,-97.3471
811,Nding,Sudan,SDN,Critically endangered,3513.0,10.4121,30.6024
812,Anung (Myanmar),Myanmar,MMR,Severely endangered,3500.0,27.2,98.6333
813,Camsá,Colombia,COL,Definitely endangered,3500.0,0.8788,-76.7724
814,Crow,United States of America,USA,Definitely endangered,3500.0,45.5963,-107.4613
815,Sak (Myanmar),Myanmar,MMR,Vulnerable,3500.0,21.2333,93.0761
816,Shwai,Sudan,SDN,Critically endangered,3500.0,11.3184,30.4156
817,Wano,Indonesia,IDN,Definitely endangered,3500.0,-3.5463,137.9058
818,Northwestern Ojibwe,Canada,CAN,Vulnerable,3465.0,52.0016,-95.4274
819,Bakpinka,Nigeria,NGA,Critically endangered,3416.0,5.3644,8.2397
820,Morokodo,Sudan,SDN,Severely endangered,3400.0,6.0313,29.7949
821,Eloxochitlán Mazatec,Mexico,MEX,Vulnerable,3384.0,18.1754,-96.8765
822,Menik,Senegal,SEN,Definitely endangered,3375.0,12.7528,-12.2717
823,Teribe (Panama),Panama,PAN,Definitely endangered,3305.0,9.4472,-82.5166
824,Tima,Sudan,SDN,Severely endangered,3305.0,11.7033,29.1934
825,Mursi,Ethiopia,ETH,Vulnerable,3278.0,5.5831,36.5075
826,Pendau,Indonesia,IDN,Vulnerable,3200.0,0.1922,120.0091
827,Ayautla Mazatec,Mexico,MEX,Vulnerable,3192.0,18.019,-96.7441
828,Yucatec,Belize,BLZ,Definitely endangered,3155.0,17.0922,-89.1221
829,Sayultec,Mexico,MEX,Definitely endangered,3150.0,17.8816,-94.9597
830,Eastern Tlapanec,Mexico,MEX,Vulnerable,3088.0,17.8135,-98.604
831,Juhur (Caucasus),"Azerbaijan, Russian Federation","AZE, RUS",Definitely endangered,3016.0,42.0044,48.2409
832,Awjila,Libyan Arab Jamahiriya,LBY,Severely endangered,3000.0,26.6278,24.5214
833,Baleasang,Indonesia,IDN,Definitely endangered,3000.0,-0.0494,119.685
834,Benga,"Gabon, Equatorial Guinea","GAB, GNQ",Definitely endangered,3000.0,0.9997,9.8657
835,Besoa,Indonesia,IDN,Vulnerable,3000.0,-1.7163,120.4211
836,Boni,Kenya,KEN,Definitely endangered,3000.0,-0.8294,40.8142
837,Bonjo,Congo,COG,Severely endangered,3000.0,1.7712,17.9598
838,Brokshat,India,IND,Definitely endangered,3000.0,34.6478,76.4978
839,Budukh,Azerbaijan,AZE,Severely endangered,3000.0,41.1207,48.3233
840,Dahaalik,Eritrea,ERI,Critically endangered,3000.0,15.6917,40.0671
841,East Greenlandic,Greenland (Kingdom of Denmark),GRL,Definitely endangered,3000.0,65.6061,-37.6858
842,Eastern Khanty,Russian Federation,RUS,Definitely endangered,3000.0,61.2491,74.5092
843,Fyem,Nigeria,NGA,Severely endangered,3000.0,9.6332,8.8632
844,Geta?,India,IND,Severely endangered,3000.0,18.2293,82.727
845,Gura,Nigeria,NGA,Severely endangered,3000.0,10.075,6.8499
846,Harsusi,Oman,OMN,Definitely endangered,3000.0,19.9372,56.2637
847,Hozo,Ethiopia,ETH,Definitely endangered,3000.0,9.3352,34.53
848,Jemez,United States of America,USA,Vulnerable,3000.0,35.6151,-106.7242
849,Kamara,Ghana,GHA,Definitely endangered,3000.0,9.0858,-2.2576
850,Kapingamarangi,Micronesia (Federated States of),FSM,Severely endangered,3000.0,1.0828,154.8081
851,Koitabu,Papua New Guinea,PNG,Vulnerable,3000.0,-9.346,147.1179
852,Kuk,Cameroon,CMR,Definitely endangered,3000.0,6.4326,10.2365
853,Lai,China,CHN,Definitely endangered,3000.0,24.4871,105.216
854,Limirong Tibetan,Nepal,NPL,Definitely endangered,3000.0,29.9164,81.7617
855,Lishanid Noshan (Israel),Israel,ISR,Severely endangered,3000.0,31.7188,34.7772
856,Lude,Russian Federation,RUS,Severely endangered,3000.0,61.5867,33.6813
857,"Mbya Guarani (Argentina, Uruguay)","Argentina, Uruguay","ARG, URY",Severely endangered,3000.0,-29.6116,-57.4804
858,"Mohawk (Akwesasne, St. Regis)",United States of America,USA,Definitely endangered,3000.0,45.0033,-74.6497
859,Nanay,"China, Russian Federation","CHN, RUS",Severely endangered,3000.0,49.3537,136.5243
860,Palu'e,Indonesia,IDN,Definitely endangered,3000.0,-8.3242,121.7106
861,Panare,Venezuela (Bolivarian Republic of),VEN,Vulnerable,3000.0,6.5445,-66.4233
862,Pilagá,Argentina,ARG,Vulnerable,3000.0,-25.4035,-58.6669
863,Pitjantjatjara,Australia,AUS,Vulnerable,3000.0,-26.0719,129.9517
864,Pukur,Guinea,GIN,Definitely endangered,3000.0,10.4013,-14.4799
865,Rotuman,Fiji,FJI,Vulnerable,3000.0,-12.5063,177.0776
866,Savi,"Pakistan, Afghanistan","PAK, AFG",Definitely endangered,3000.0,35.2085,71.845
867,Sherdukpen,India,IND,Vulnerable,3000.0,27.1935,92.351
868,Shira Yugur,China,CHN,Severely endangered,3000.0,39.1002,99.2065
869,Takahanyilang,India,IND,Critically endangered,3000.0,6.85,93.8726
870,U,China,CHN,Definitely endangered,3000.0,23.4844,99.8404
871,Ulithian,Micronesia (Federated States of),FSM,Severely endangered,3000.0,10.0229,139.6801
872,Waima'a,Timor-Leste,TLS,Definitely endangered,3000.0,-8.4995,126.3372
873,Warlpiri,Australia,AUS,Vulnerable,3000.0,-20.8177,131.6601
874,Yukpa,Venezuela (Bolivarian Republic of),VEN,Vulnerable,3000.0,9.7956,-72.9382
875,Western Montagnais,Canada,CAN,Vulnerable,2980.0,48.9635,-68.5729
876,Waiwai (Brazil),Brazil,BRA,Vulnerable,2916.0,-0.7909,-58.2714
877,Jersey French,United Kingdom of Great Britain and Northern Ireland,GBR,Severely endangered,2874.0,49.2211,-2.1368
878,Bahing,Nepal,NPL,Definitely endangered,2765.0,27.3126,86.5571
879,Stoney,Canada,CAN,Vulnerable,2765.0,51.161,-114.8533
880,Southwestern Tepehuan,Mexico,MEX,Vulnerable,2756.0,22.8349,-105.7276
881,Northern Mansi,Russian Federation,RUS,Severely endangered,2746.0,62.6539,63.1494
882,Bisu,"Myanmar, Thailand","MMR, THA",Definitely endangered,2740.0,19.715,99.6789
883,Wari,Brazil,BRA,Definitely endangered,2721.0,-11.7275,-65.0061
884,Pakan,China,CHN,Definitely endangered,2700.0,23.7447,105.2235
885,Yami,China,CHN,Vulnerable,2700.0,22.0512,121.5403
886,Ko,Sudan,SDN,Critically endangered,2683.0,10.6714,30.8386
887,Yuracaré,Bolivia (Plurinational State of),BOL,Definitely endangered,2675.0,-16.6888,-65.4345
888,Aimol,India,IND,Critically endangered,2643.0,24.4971,93.6145
889,Kohi,Nepal,NPL,Vulnerable,2641.0,27.3607,86.8661
890,Chatino of the western lowlands,Mexico,MEX,Definitely endangered,2640.0,16.3049,-97.5466
891,Bolo,Angola,ANG,Definitely endangered,2627.0,-10.5526,14.9633
892,Logol,Sudan,SDN,Severely endangered,2600.0,10.8521,30.6463
893,Sila,"Lao People's Democratic Republic, Viet Nam","LAO, VNM",Definitely endangered,2600.0,22.3094,102.041
894,Pisaflores Tepehua,Mexico,MEX,Vulnerable,2578.0,20.6883,-98.0125
895,Xerente,Brazil,BRA,Severely endangered,2569.0,-9.3356,-48.2227
896,Bribri (Panama),Panama,PAN,Severely endangered,2521.0,9.4813,-82.6174
897,Achuar,"Ecuador, Peru","ECU, PER",Definitely endangered,2500.0,-2.8991,-77.4316
898,Bai,Sudan,SDN,Definitely endangered,2500.0,8.0592,25.5102
899,Banka,Mali,MLI,Definitely endangered,2500.0,11.4261,-5.6744
900,Culina (Peru),Peru,PER,Definitely endangered,2500.0,-9.6224,-70.7958
901,Gadang,Chad,TCD,Definitely endangered,2500.0,10.3473,17.2485
902,Khinalug,Azerbaijan,AZE,Severely endangered,2500.0,41.1579,48.0706
903,Laomian (China),China,CHN,Definitely endangered,2500.0,23.7645,100.0195
904,Laomian (Myanmar),Myanmar,MMR,Definitely endangered,2500.0,22.6833,99.25
905,Lhokpu,Bhutan,BTN,Definitely endangered,2500.0,26.9514,89.2968
906,Martuwangka,Australia,AUS,Vulnerable,2500.0,-24.1975,122.9589
907,Mayoruna (Peru),Peru,PER,Vulnerable,2500.0,-5.5285,-73.4765
908,Pingelapese,Micronesia (Federated States of),FSM,Severely endangered,2500.0,6.2279,160.7107
909,Rapanui,Chile,CHL,Severely endangered,2500.0,-27.108,-109.3579
910,Remo,India,IND,Severely endangered,2500.0,19.1659,82.6391
911,Roshorvi,Tajikistan,TJK,Severely endangered,2500.0,38.1086,72.1719
912,Sanglechi,"Tajikistan, Afghanistan","TJK, AFG",Severely endangered,2500.0,36.6585,71.4784
913,Semelai,Malaysia,MYS,Severely endangered,2500.0,3.1761,102.4818
914,Urak Lawoi (Malaysia),Malaysia,MYS,Definitely endangered,2500.0,6.4194,99.7869
915,Urak Lawoi (Thailand),Thailand,THA,Definitely endangered,2500.0,7.7756,98.3306
916,Zirenkel,Chad,TCD,Definitely endangered,2500.0,12.136,18.4735
917,Vumbu,Gabon,GAB,Definitely endangered,2460.0,-1.8783,10.816
918,Mopán (Guatemala),Guatemala,GTM,Severely endangered,2455.0,16.5144,-89.4167
919,Cuiba,"Colombia, Venezuela (Bolivarian Republic of)","COL, VEN",Severely endangered,2445.0,6.4463,-69.9389
920,Raji,Nepal,NPL,Severely endangered,2413.0,27.9721,82.3135
921,Highland Chontal,Mexico,MEX,Severely endangered,2410.0,16.2832,-95.857
922,Yasa,"Cameroon, Equatorial Guinea","CMR, GNQ",Definitely endangered,2401.0,2.3284,9.8464
923,Bumbita Arapesh,Papua New Guinea,PNG,Vulnerable,2353.0,-3.6449,142.8002
924,Mang (China),China,CHN,Definitely endangered,2300.0,22.8293,103.1039
925,Mang (Viet Nam),Viet Nam,VNM,Definitely endangered,2300.0,22.35,102.9666
926,Tlachichilco Tepehua,Mexico,MEX,Definitely endangered,2234.0,20.6205,-98.1991
927,Blackfoot (Canada),Canada,CAN,Definitely endangered,2200.0,49.3535,-113.2884
928,Jaya,Chad,TCD,Severely endangered,2200.0,12.187,18.1645
929,Karipuna do Amapá,Brazil,BRA,Vulnerable,2200.0,3.3379,-51.6796
930,Kulfa,Chad,TCD,Definitely endangered,2200.0,9.9742,19.1848
931,Krahô,Brazil,BRA,Vulnerable,2184.0,-8.4071,-47.2851
932,Kristang,Malaysia,MYS,Severely endangered,2150.0,2.1935,102.256
933,Yine,Peru,PER,Definitely endangered,2150.0,-11.4584,-73.0261
934,North Alaskan Inupiaq (Kotzebue Sound),United States of America,USA,Severely endangered,2144.0,66.8972,-162.5855
935,North Alaskan Inupiaq (North Slope),United States of America,USA,Severely endangered,2144.0,71.2725,-156.7749
936,Seward Peninsula Inupiaq (King Island),United States of America,USA,Critically endangered,2144.0,64.9728,-168.0616
937,Seward Peninsula Inupiaq (Little Diomede Island),United States of America,USA,Critically endangered,2144.0,65.755,-168.9167
938,Seward Peninsula Inupiaq (Norton Sound),United States of America,USA,Critically endangered,2144.0,64.5433,-163.029
939,Katukína-Kanamarí,Brazil,BRA,Vulnerable,2100.0,-5.6159,-68.7304
940,Tiwi,Australia,AUS,Vulnerable,2100.0,-11.6091,130.8911
941,Zaozou,China,CHN,Vulnerable,2100.0,26.1554,99.2944
942,Ngäbere (Costa Rica),Costa Rica,CRI,Definitely endangered,2041.0,8.4723,-82.9907
943,Aiton,India,IND,Severely endangered,2000.0,26.6523,94.2901
944,Anindilyakwa,Australia,AUS,Vulnerable,2000.0,-13.9987,136.582
945,Apurinã,Brazil,BRA,Definitely endangered,2000.0,-5.4847,-63.8964
946,Arrernte,Australia,AUS,Vulnerable,2000.0,-24.1668,132.0996
947,Ashkun,Afghanistan,AFG,Definitely endangered,2000.0,34.9973,71.0746
948,Ata,Philippines,PHL,Critically endangered,2000.0,9.6081,122.9155
949,Athpahariya,Nepal,NPL,Definitely endangered,2000.0,26.952,87.3399
950,Ava-Guaraní,Argentina,ARG,Definitely endangered,2000.0,-23.1403,-64.3359
951,Bayso,Ethiopia,ETH,Definitely endangered,2000.0,6.4081,37.749
952,Birhor,India,IND,Critically endangered,2000.0,21.7594,85.935
953,Boano,Indonesia,IDN,Vulnerable,2000.0,0.4724,120.9979
954,Bori,"China, India","CHN, IND",Definitely endangered,2000.0,28.9889,94.4439
955,Chepya,Lao People's Democratic Republic,LAO,Definitely endangered,2000.0,21.3833,101.8166
956,Chilisso,Pakistan,PAK,Severely endangered,2000.0,35.2136,73.2396
957,Culina (Brazil),Brazil,BRA,Vulnerable,2000.0,-7.1008,-68.7744
958,Damana,Colombia,COL,Definitely endangered,2000.0,10.9196,-73.4985
959,Duguza,Nigeria,NGA,Definitely endangered,2000.0,9.9039,9.1186
960,Galibi Marworno,Brazil,BRA,Vulnerable,2000.0,3.4256,-52.0312
961,Gats'ama - Ganjule - Harro,Ethiopia,ETH,Definitely endangered,2000.0,5.9548,37.5292
962,Gebe,Indonesia,IDN,Vulnerable,2000.0,-0.1922,129.5397
963,Ghadames,Libyan Arab Jamahiriya,LBY,Vulnerable,2000.0,30.1166,9.5251
964,Griko (Calabria),Italy,ITA,Severely endangered,2000.0,37.9961,15.9329
965,Huilliche,Chile,CHL,Critically endangered,2000.0,-40.4803,-73.5424
966,Ik,Uganda,UGA,Severely endangered,2000.0,3.5024,34.1894
967,Jangshung,India,IND,Definitely endangered,2000.0,31.7748,78.4753
968,Jero,Nepal,NPL,Vulnerable,2000.0,27.2241,86.3909
969,Kari'ña (French Guyana),French Guiana (France),GUF,Definitely endangered,2000.0,5.5066,-53.6572
970,Khamnigan Mongol,"China, Mongolia, Russian Federation","CHN, MNG, RUS",Definitely endangered,2000.0,50.3454,114.1094
971,Kona,Nigeria,NGA,Severely endangered,2000.0,9.0587,11.2829
972,Koreguaje,Colombia,COL,Definitely endangered,2000.0,1.0,-75.0
973,Koryak,Russian Federation,RUS,Severely endangered,2000.0,61.8561,168.6621
974,Kota,India,IND,Critically endangered,2000.0,11.4154,76.8576
975,Logorik,Sudan,SDN,Critically endangered,2000.0,11.1433,29.8306
976,Lule Saami,"Norway, Sweden","NOR, SWE",Severely endangered,2000.0,67.272,17.7978
977,Luro,India,IND,Critically endangered,2000.0,7.915,93.3837
978,Mambai,Chad,TCD,Severely endangered,2000.0,9.6007,14.0899
979,Milang,India,IND,Definitely endangered,2000.0,28.488,95.2954
980,Mocoví,Argentina,ARG,Definitely endangered,2000.0,-27.6056,-59.7656
981,Momuna,Indonesia,IDN,Vulnerable,2000.0,-5.0,139.0
982,Mpi,Thailand,THA,Definitely endangered,2000.0,18.2554,100.2227
983,Muda,China,CHN,Vulnerable,2000.0,21.8421,100.6851
984,Munji,Afghanistan,AFG,Severely endangered,2000.0,36.0379,70.6723
985,Nguon,Viet Nam,VNM,Vulnerable,2000.0,17.5333,105.3833
986,Nheengatu / Yeral (Venezuela),Venezuela (Bolivarian Republic of),VEN,Severely endangered,2000.0,1.2303,-66.8408
987,Nihali,India,IND,Critically endangered,2000.0,20.5402,76.0913
988,Nyishangba,Nepal,NPL,Definitely endangered,2000.0,28.6423,84.1017
989,Ottawa (Walpole Island),"Canada, United States of America","CAN, USA",Severely endangered,2000.0,42.6068,-82.5195
990,Prasun,Afghanistan,AFG,Definitely endangered,2000.0,35.3543,71.26
991,Rukai,China,CHN,Vulnerable,2000.0,22.792,120.8104
992,Sáliba,"Colombia, Venezuela (Bolivarian Republic of)","COL, VEN",Severely endangered,2000.0,5.3097,-69.873
993,Sangkong,China,CHN,Vulnerable,2000.0,21.5158,100.6957
994,Sarwa,Chad,TCD,Definitely endangered,2000.0,10.5958,17.0397
995,Shoshoni (Idaho),United States of America,USA,Severely endangered,2000.0,43.0438,-112.4629
996,Shoshoni (Nevada),United States of America,USA,Severely endangered,2000.0,40.0358,-113.9835
997,Shoshoni (Wyoming),United States of America,USA,Severely endangered,2000.0,43.014,-108.8209
998,Tai Phake,India,IND,Severely endangered,2000.0,27.5033,95.2185
999,Tamazight (Arzew),Algeria,DZA,Critically endangered,2000.0,35.5869,-0.4737
1000,Tanglang,China,CHN,Vulnerable,2000.0,26.0863,99.7119
1001,Tchitchege,Gabon,GAB,Definitely endangered,2000.0,-1.8508,13.612
1002,Tinan,"China, India","CHN, IND",Definitely endangered,2000.0,32.519,77.6733
1003,Tsafiki,Ecuador,ECU,Definitely endangered,2000.0,-0.25,-79.15
1004,Ukhwejo,Central African Republic,CAF,Severely endangered,2000.0,3.3626,16.0565
1005,Urarina,Peru,PER,Vulnerable,2000.0,-4.3464,-75.3002
1006,Ushojo,Pakistan,PAK,Definitely endangered,2000.0,35.0209,72.897
1007,Waigali,Afghanistan,AFG,Definitely endangered,2000.0,35.1895,71.1941
1008,Waotededo,Ecuador,ECU,Vulnerable,2000.0,-1.1864,-76.6296
1009,Wotapuri-Katarqalai,Afghanistan,AFG,Definitely endangered,2000.0,34.4166,70.3333
1010,Wutun,China,CHN,Definitely endangered,2000.0,35.791,102.4365
1011,Candoshi,Peru,PER,Definitely endangered,1900.0,-3.7107,-76.9042
1012,Hupda (Brazil),Brazil,BRA,Vulnerable,1900.0,0.7909,-68.247
1013,Mixtec of the central Ravine,Mexico,MEX,Definitely endangered,1878.0,17.9666,-96.8333
1014,Kendeje,Chad,TCD,Definitely endangered,1859.0,13.6299,21.5771
1015,Hunzib,Russian Federation,RUS,Definitely endangered,1839.0,42.1654,46.2991
1016,Tchumbuli,Benin,BEN,Critically endangered,1838.0,8.7113,2.1533
1017,Cashibo-Cacataibo,Peru,PER,Definitely endangered,1800.0,-8.9393,-75.0915
1018,Grass Koiari,Papua New Guinea,PNG,Vulnerable,1800.0,-9.4558,147.5559
1019,Isirawa,Indonesia,IDN,Vulnerable,1800.0,-1.8783,138.5485
1020,Lanoh,Malaysia,MYS,Critically endangered,1800.0,5.2509,101.0206
1021,Lemolang,Indonesia,IDN,Vulnerable,1800.0,-2.6303,120.1849
1022,Nila (Seram Island),Indonesia,IDN,Definitely endangered,1800.0,-3.2173,128.9849
1023,Shixing,China,CHN,Definitely endangered,1800.0,28.5263,100.4734
1024,Chuj (Mexico),Mexico,MEX,Critically endangered,1771.0,16.1203,-92.0407
1025,Darma,"India, Nepal","IND, NPL",Definitely endangered,1761.0,30.0037,80.5641
1026,Kung,Cameroon,CMR,Severely endangered,1750.0,6.5227,10.1074
1027,Lokono (Guyana),"Guyana, Venezuela (Bolivarian Republic of)","GUY, VEN",Critically endangered,1750.0,6.2934,-58.0957
1028,Byangsi,"India, Nepal","IND, NPL",Definitely endangered,1734.0,30.0595,80.7824
1029,Pasing,Lao People's Democratic Republic,LAO,Definitely endangered,1732.0,21.1254,101.4697
1030,Yamphu,Nepal,NPL,Definitely endangered,1722.0,27.5935,87.3316
1031,Andio,Indonesia,IDN,Vulnerable,1700.0,-0.8514,123.1457
1032,Cheyenne (Montana),United States of America,USA,Definitely endangered,1700.0,45.5495,-106.5263
1033,Kumzari,Oman,OMN,Severely endangered,1700.0,26.1936,56.2431
1034,Quechua of Yauyos,Peru,PER,Critically endangered,1700.0,-12.9081,-75.6958
1035,Bainouk-Samik,Senegal,SEN,Severely endangered,1685.0,12.5733,-16.2652
1036,Côông,Viet Nam,VNM,Definitely endangered,1676.0,22.5943,102.7455
1037,Dogrib,Canada,CAN,Vulnerable,1675.0,62.8292,-115.9904
1038,Upland Yuman,United States of America,USA,Vulnerable,1650.0,36.2377,-112.7094
1039,Eastern Cuicatec,Mexico,MEX,Vulnerable,1641.0,17.9666,-96.7166
1040,Tamazight (Ait Rouadi),Morocco,MAR,Extinct,1637.0,32.5745,-5.9655
1041,Woleaian,Micronesia (Federated States of),FSM,Severely endangered,1631.0,7.3515,143.8769
1042,Huehuetla Tepehua,Mexico,MEX,Definitely endangered,1603.0,20.46,-98.0761
1043,Kadiwéu,Brazil,BRA,Definitely endangered,1600.0,-20.5222,-56.7237
1044,Southern Tiwa (Isleta Pueblo),United States of America,USA,Definitely endangered,1600.0,34.9057,-106.7066
1045,Southern Tiwa (Sandia Pueblo),United States of America,USA,Definitely endangered,1600.0,35.2516,-106.565
1046,Tewa (Arizona),United States of America,USA,Definitely endangered,1600.0,35.8334,-110.3798
1047,Tewa (New Mexico),United States of America,USA,Severely endangered,1600.0,36.053,-106.0708
1048,ǁGana,Botswana,BWA,Vulnerable,1550.0,-21.7824,21.8971
1049,Akwáwa,Brazil,BRA,Vulnerable,1548.0,-5.2441,-52.7014
1050,Northern Cuicatec,Mexico,MEX,Vulnerable,1503.0,17.9511,-96.7384
1051,Chiquihuitlán Mazatec,Mexico,MEX,Definitely endangered,1502.0,17.9953,-96.7449
1052,Apinajé,Brazil,BRA,Vulnerable,1500.0,-6.0317,-47.5604
1053,Bashkarik,Pakistan,PAK,Severely endangered,1500.0,35.2893,72.6168
1054,Chintang,Nepal,NPL,Severely endangered,1500.0,26.9367,87.1991
1055,Forest Nenets,Russian Federation,RUS,Severely endangered,1500.0,64.9188,77.7941
1056,Hupda (Colombia),Colombia,COL,Definitely endangered,1500.0,0.3845,-70.1367
1057,Jah Hut,Malaysia,MYS,Severely endangered,1500.0,3.6452,102.3065
1058,Jeri,Côte d'Ivoire,CIV,Severely endangered,1500.0,9.2647,-5.8666
1059,Jonkor Bourmataguil,Chad,TCD,Severely endangered,1500.0,11.4261,19.0145
1060,K'emant,Ethiopia,ETH,Severely endangered,1500.0,12.9349,37.2326
1061,Kanashi,India,IND,Definitely endangered,1500.0,32.0406,77.1075
1062,Karajá,Brazil,BRA,Vulnerable,1500.0,-11.0921,-50.3393
1063,Karelian (Tikhvin),Russian Federation,RUS,Severely endangered,1500.0,59.601,33.3544
1064,Kendem,Cameroon,CMR,Severely endangered,1500.0,5.7061,9.6377
1065,Khamba,"China, India","CHN, IND",Definitely endangered,1500.0,29.0105,94.7653
1066,Lishpa,India,IND,Definitely endangered,1500.0,27.3327,92.384
1067,Mayoruna (Brazil),Brazil,BRA,Vulnerable,1500.0,-3.3379,-64.8413
1068,Mescalero-Chiricahua Apache (New Mexico),United States of America,USA,Definitely endangered,1500.0,33.1514,-105.7942
1069,Numao Bunu,China,CHN,Definitely endangered,1500.0,24.3902,107.2701
1070,Orang Seletar,Malaysia,MYS,Severely endangered,1500.0,1.3387,103.464
1071,Palenque Creole,Colombia,COL,Definitely endangered,1500.0,10.0952,-75.1142
1072,Pong,Lao People's Democratic Republic,LAO,Definitely endangered,1500.0,18.4666,105.05
1073,Pyuma,China,CHN,Vulnerable,1500.0,22.8027,121.0748
1074,Saaroa,China,CHN,Critically endangered,1500.0,23.1283,120.7062
1075,Saluan,Indonesia,IDN,Vulnerable,1500.0,-0.8129,122.871
1076,Semaq Beri,Malaysia,MYS,Critically endangered,1500.0,4.0012,102.8443
1077,Talodi,Sudan,SDN,Critically endangered,1500.0,10.6902,30.3964
1078,Wayana (Suriname),Suriname,SUR,Vulnerable,1500.0,2.7455,-54.58
1079,Wik Mungkan,Australia,AUS,Vulnerable,1500.0,-12.9403,141.9873
1080,Natsilingmiutut,Canada,CAN,Vulnerable,1455.0,68.643,-95.8863
1081,Movima,Bolivia (Plurinational State of),BOL,Severely endangered,1452.0,-13.7954,-65.4345
1082,Ngombe,Central African Republic,CAF,Definitely endangered,1450.0,3.9492,15.2352
1083,Cinta Larga,Brazil,BRA,Vulnerable,1440.0,-11.4154,-59.7216
1084,Dupaninan Agta,Philippines,PHL,Vulnerable,1400.0,17.9682,122.0361
1085,Tese,Sudan,SDN,Critically endangered,1400.0,11.2161,29.8471
1086,Bororo,Brazil,BRA,Definitely endangered,1390.0,-15.5172,-53.1024
1087,Puluwat,Micronesia (Federated States of),FSM,Severely endangered,1364.0,7.5803,149.425
1088,Kanela Rankokamekra,Brazil,BRA,Vulnerable,1337.0,-6.075,-44.9121
1089,Saba,Chad,TCD,Definitely endangered,1335.0,11.1487,18.0175
1090,Kurripako (Brazil),Brazil,BRA,Vulnerable,1332.0,0.7001,-68.3789
1091,Triw,Lao People's Democratic Republic,LAO,Definitely endangered,1328.0,15.6833,107.2
1092,Guernsey French,United Kingdom of Great Britain and Northern Ireland,GBR,Severely endangered,1327.0,49.4502,-2.5927
1093,Paafang,Micronesia (Federated States of),FSM,Severely endangered,1318.0,7.6198,155.1571
1094,Chɨlɨng,Nepal,NPL,Definitely endangered,1314.0,26.9483,87.2527
1095,Zapotec of the Valleys north,Mexico,MEX,Severely endangered,1303.0,17.0666,-96.65
1096,Cypriot Arabic,Cyprus,CYP,Severely endangered,1300.0,35.3196,33.338
1097,Palikur (Brazil),Brazil,BRA,Vulnerable,1300.0,4.0396,-51.7236
1098,Sanenyo,India,IND,Critically endangered,1300.0,7.9504,93.576
1099,Tecóatl Mazatec,Mexico,MEX,Vulnerable,1300.0,18.1653,-96.9124
1100,Xinka,Guatemala,GTM,Critically endangered,1283.0,14.3447,-90.2603
1101,Ozomatlán Totonac,Mexico,MEX,Critically endangered,1276.0,20.1766,-98.0527
1102,Kāgate,Nepal,NPL,Definitely endangered,1273.0,27.5449,86.2925
1103,Maxakali,Brazil,BRA,Vulnerable,1271.0,-16.5519,-40.3417
1104,Murik,Papua New Guinea,PNG,Vulnerable,1256.0,-3.8368,144.2807
1105,Pengo,India,IND,Critically endangered,1254.0,19.0621,83.4851
1106,Marúbo,Brazil,BRA,Vulnerable,1252.0,-6.0968,-70.2246
1107,Aivilingmiutut,Canada,CAN,Vulnerable,1245.0,64.1657,-83.243
1108,Besme,Chad,TCD,Severely endangered,1228.0,9.6386,16.018
1109,Oirata,Indonesia,IDN,Definitely endangered,1221.0,-8.0755,127.1777
1110,Lohorung,Nepal,NPL,Severely endangered,1207.0,27.4266,87.2498
1111,Harakmbut,Peru,PER,Definitely endangered,1206.0,-12.9403,-70.2685
1112,Buyang,China,CHN,Severely endangered,1200.0,23.4146,105.7632
1113,Dakka,Indonesia,IDN,Vulnerable,1200.0,-3.316,119.2071
1114,Mah Meri,Malaysia,MYS,Severely endangered,1200.0,2.836,101.4299
1115,Manjui,"Argentina, Bolivia (Plurinational State of), Paraguay","ARG, BOL, PRY",Definitely endangered,1200.0,-23.1201,-62.7539
1116,Te'un (Seram Island),Indonesia,IDN,Definitely endangered,1200.0,-3.1843,128.9465
1117,Tsou,China,CHN,Vulnerable,1200.0,23.5174,120.8564
1118,Ujir,Indonesia,IDN,Definitely endangered,1200.0,-5.6105,134.2776
1119,White Gelao (China),China,CHN,Severely endangered,1200.0,26.4894,105.021
1120,Dakkang,Lao People's Democratic Republic,LAO,Definitely endangered,1198.0,15.6333,107.25
1121,Northern Algonquin,Canada,CAN,Vulnerable,1180.0,48.0616,-77.3521
1122,Akawaio (Brazil),Brazil,BRA,Vulnerable,1170.0,4.1711,-60.249
1123,Huehuetlán Mazatec,Mexico,MEX,Vulnerable,1169.0,18.1964,-96.9471
1124,Trio (Brazil),Brazil,BRA,Vulnerable,1156.0,1.7136,-55.2392
1125,Savo,Solomon Islands,SLB,Definitely endangered,1147.0,-9.1292,159.8071
1126,Tektitek,Guatemala,GTM,Definitely endangered,1144.0,15.3073,-92.0609
1127,Fwâi,New Caledonia (France),NCL,Vulnerable,1131.0,-20.7048,164.9034
1128,Waimirí-Atroarí,Brazil,BRA,Vulnerable,1120.0,-1.0985,-60.8203
1129,Guayabero,Colombia,COL,Definitely endangered,1118.0,2.6028,-72.3999
1130,Fagauvea (Northern),New Caledonia (France),NCL,Vulnerable,1107.0,-20.4089,166.5444
1131,Fagauvea (Southern),New Caledonia (France),NCL,Vulnerable,1107.0,-20.7381,166.4126
1132,Fania,Chad,TCD,Severely endangered,1100.0,10.0581,18.3993
1133,Ubi,Chad,TCD,Severely endangered,1100.0,12.1534,18.6946
1134,Warnang,Sudan,SDN,Severely endangered,1100.0,10.6538,30.6298
1135,Itzá,Guatemala,GTM,Critically endangered,1094.0,16.9838,-89.899
1136,Mixtec of the southwest of Puebla,Mexico,MEX,Definitely endangered,1074.0,18.6333,-98.0666
1137,Lowland Chontal,Mexico,MEX,Critically endangered,1060.0,16.0286,-95.6683
1138,Koireng,India,IND,Critically endangered,1056.0,24.2319,93.7463
1139,Chipaya,Bolivia (Plurinational State of),BOL,Definitely endangered,1050.0,-19.2074,-68.2031
1140,Mokilese,Micronesia (Federated States of),FSM,Critically endangered,1050.0,6.6864,159.7631
1141,Western Náhuatl,Mexico,MEX,Severely endangered,1041.0,18.3745,-103.3026
1142,Acatepec Mazatec,Mexico,MEX,Vulnerable,1038.0,18.1621,-96.8766
1143,Mixtec of Villa de Tututepec,Mexico,MEX,Definitely endangered,1019.0,16.1333,-97.6
1144,Toda,India,IND,Critically endangered,1006.0,11.3184,76.8273
1145,Adabe,Timor-Leste,TLS,Vulnerable,1000.0,-8.2549,125.5737
1146,Alutor,Russian Federation,RUS,Severely endangered,1000.0,60.2016,165.4238
1147,Arapaho (Wyoming),United States of America,USA,Severely endangered,1000.0,43.0139,-108.8214
1148,Beeke,Democratic Republic of the Congo,ZAI,Severely endangered,1000.0,0.9997,28.7951
1149,Blackfoot (United States of America),United States of America,USA,Definitely endangered,1000.0,48.5699,-113.0918
1150,Bohtan Neo-Aramaic,"Georgia, Russian Federation","GEO, RUS",Severely endangered,1000.0,41.5579,45.0219
1151,Bola,China,CHN,Definitely endangered,1000.0,25.0638,98.2414
1152,Bong'om,Kenya,KEN,Definitely endangered,1000.0,1.1315,35.0134
1153,Bora,"Colombia, Peru","COL, PER",Vulnerable,1000.0,-2.7455,-71.8835
1154,Central Siberian Yupik (St. Lawrence Island),United States of America,USA,Definitely endangered,1000.0,63.7444,-171.7242
1155,Chali,Bhutan,BTN,Definitely endangered,1000.0,27.301,91.2991
1156,Cherokee (North Carolina),United States of America,USA,Severely endangered,1000.0,35.113,-84.0588
1157,Cocama-Cocamilla (Peru),Peru,PER,Severely endangered,1000.0,-4.8282,-74.2565
1158,Dair,Sudan,SDN,Severely endangered,1000.0,12.517,30.5914
1159,Dakpa,"Bhutan, India","BTN, IND",Definitely endangered,1000.0,27.3937,91.8965
1160,Dampelas,Indonesia,IDN,Definitely endangered,1000.0,0.2005,119.8965
1161,Danaw,Myanmar,MMR,Critically endangered,1000.0,21.192,97.3937
1162,Ega,Côte d'Ivoire,CIV,Severely endangered,1000.0,5.8018,-5.4492
1163,El Hugeirat,Sudan,SDN,Severely endangered,1000.0,12.3131,28.4243
1164,Faghani,Solomon Islands,SLB,Vulnerable,1000.0,-10.4337,161.5979
1165,Fongoro,Chad,TCD,Severely endangered,1000.0,11.1029,22.7197
1166,Gambiri,Afghanistan,AFG,Severely endangered,1000.0,34.9017,70.9085
1167,Gongduk,Bhutan,BTN,Vulnerable,1000.0,27.086,91.2002
1168,Gorap,Indonesia,IDN,Definitely endangered,1000.0,2.1528,128.2516
1169,Guugu Yimidhirr,Australia,AUS,Vulnerable,1000.0,-14.8598,144.7338
1170,Gyem,Nigeria,NGA,Critically endangered,1000.0,10.3865,9.3122
1171,Habu,Timor-Leste,TLS,Vulnerable,1000.0,-8.7819,126.0021
1172,Hawaiian,United States of America,USA,Critically endangered,1000.0,21.9226,-160.1147
1173,Hértevin,Turkey,TUR,Critically endangered,1000.0,37.9268,42.5473
1174,Hu,China,CHN,Definitely endangered,1000.0,22.1743,100.9264
1175,Hualapai,United States of America,USA,Vulnerable,1000.0,35.5279,-113.4297
1176,Hung,"Lao People's Democratic Republic, Viet Nam","LAO, VNM",Definitely endangered,1000.0,18.9062,105.05
1177,Inkhokvari,Russian Federation,RUS,Definitely endangered,1000.0,42.3981,46.0299
1178,Ishkashimi,Tajikistan,TJK,Severely endangered,1000.0,36.6915,71.7668
1179,Iyive,Cameroon,CMR,Severely endangered,1000.0,6.4354,9.5278
1180,Jiongnai Bunu,China,CHN,Definitely endangered,1000.0,23.3902,108.5135
1181,Kaande,Gabon,GAB,Severely endangered,1000.0,-0.1318,11.8103
1182,Kaco',Cambodia,KHM,Definitely endangered,1000.0,13.934,107.4222
1183,Kadu,Myanmar,MMR,Severely endangered,1000.0,24.2042,95.6332
1184,Kairui-Midiki,Timor-Leste,TLS,Vulnerable,1000.0,-8.7222,126.2878
1185,Kari,Democratic Republic of the Congo,ZAI,Severely endangered,1000.0,4.8392,25.5432
1186,Kayabi,Brazil,BRA,Vulnerable,1000.0,-11.1972,-53.2342
1187,Khowa,India,IND,Definitely endangered,1000.0,27.2546,92.5323
1188,Kodeoha,Indonesia,IDN,Vulnerable,1000.0,-3.4147,120.9155
1189,Kujarge,Chad,TCD,Definitely endangered,1000.0,11.749,22.2431
1190,Kukatja,Australia,AUS,Vulnerable,1000.0,-21.2074,126.4746
1191,Kuot,Papua New Guinea,PNG,Vulnerable,1000.0,-3.0692,151.5234
1192,Lokono (Suriname),"French Guiana (France), Suriname","GUF, SUR",Severely endangered,1000.0,5.6487,-55.1074
1193,Mahongwe,Gabon,GAB,Severely endangered,1000.0,1.0216,13.9031
1194,Manchurian Ölöt,China,CHN,Severely endangered,1000.0,48.1953,124.2993
1195,May,"Lao People's Democratic Republic, Viet Nam","LAO, VNM",Definitely endangered,1000.0,18.0623,105.5786
1196,Mbara,Chad,TCD,Severely endangered,1000.0,10.8009,15.6335
1197,Mech,India,IND,Severely endangered,1000.0,26.5688,89.1979
1198,Mòcheno,Italy,ITA,Definitely endangered,1000.0,46.1194,11.3258
1199,Naueti,Timor-Leste,TLS,Vulnerable,1000.0,-8.7357,126.7053
1200,North Greenlandic,Greenland (Kingdom of Denmark),GRL,Definitely endangered,1000.0,77.4815,-69.3511
1201,Ormuri,"Pakistan, Afghanistan","PAK, AFG",Definitely endangered,1000.0,32.518,69.783
1202,Paiter,Brazil,BRA,Vulnerable,1000.0,-11.1245,-61.3476
1203,Pareci,Brazil,BRA,Definitely endangered,1000.0,-14.3525,-58.0174
1204,Pasi,India,IND,Definitely endangered,1000.0,28.1834,95.2651
1205,Resian,Italy,ITA,Definitely endangered,1000.0,46.3734,13.3058
1206,Sach,"Lao People's Democratic Republic, Viet Nam","LAO, VNM",Definitely endangered,1000.0,17.78,105.7666
1207,Sake,Gabon,GAB,Severely endangered,1000.0,-0.0247,11.7691
1208,Saterlandic,Germany,DEU,Severely endangered,1000.0,53.1059,7.6787
1209,She,China,CHN,Critically endangered,1000.0,23.3333,115.2459
1210,Shumashti,Afghanistan,AFG,Severely endangered,1000.0,34.6108,70.7569
1211,Sighu,Gabon,GAB,Severely endangered,1000.0,-0.0549,13.5461
1212,Sobei,Indonesia,IDN,Definitely endangered,1000.0,-1.8632,138.7408
1213,Thavung (Laos),"Lao People's Democratic Republic, Thailand","LAO, THA",Definitely endangered,1000.0,18.4666,104.6666
1214,Tirma,Sudan,SDN,Critically endangered,1000.0,6.4899,34.3212
1215,Tombelala,Indonesia,IDN,Vulnerable,1000.0,-2.5315,121.9454
1216,Toto,India,IND,Critically endangered,1000.0,26.6867,89.5056
1217,Trio (Suriname),Suriname,SUR,Vulnerable,1000.0,2.1528,-56.3818
1218,Tum,Lao People's Democratic Republic,LAO,Definitely endangered,1000.0,18.7,105.05
1219,Tuotomb,Cameroon,CMR,Severely endangered,1000.0,4.4449,10.371
1220,Yatê,Brazil,BRA,Severely endangered,1000.0,-7.0136,-37.0458
1221,Zaiwa,"China, India","CHN, IND",Definitely endangered,1000.0,28.4735,96.4764
1222,Zay,Ethiopia,ETH,Severely endangered,1000.0,8.0728,38.8476
1223,Zenaga (Western Sahara),Western Sahara,ESH,Critically endangered,1000.0,22.2687,-13.7109
1224,|Gui,Botswana,BWA,Vulnerable,1000.0,-21.8385,21.7858
1225,ǁAni,Botswana,BWA,Definitely endangered,1000.0,-18.6462,22.1319
1226,Buglé,Panama,PAN,Definitely endangered,993.0,8.5858,-82.3856
1227,Ka'apór,Brazil,BRA,Vulnerable,991.0,-2.8991,-46.3183
1228,Hadza,United Republic of Tanzania,TZA,Vulnerable,975.0,-3.401,35.3897
1229,Kunwinjku,Australia,AUS,Vulnerable,974.0,-12.1333,133.4014
1230,Bakairi,Brazil,BRA,Vulnerable,950.0,-14.4213,-54.0305
1231,Drubea,New Caledonia (France),NCL,Vulnerable,946.0,-22.0347,166.5527
1232,Namonuito,Micronesia (Federated States of),FSM,Severely endangered,944.0,8.6299,150.0128
1233,Hya,"Cameroon, Nigeria","CMR, NGA",Severely endangered,940.0,10.3311,13.5269
1234,Machineri (Brazil),Brazil,BRA,Vulnerable,937.0,-10.5742,-70.4882
1235,South Slavey,Canada,CAN,Definitely endangered,920.0,61.8154,-121.3346
1236,Wajãpi,Brazil,BRA,Vulnerable,905.0,0.747,-52.8442
1237,Mewahang,Nepal,NPL,Severely endangered,904.0,27.5441,87.1401
1238,Awapit,Ecuador,ECU,Severely endangered,900.0,1.0985,-78.706
1239,Chimila,Colombia,COL,Severely endangered,900.0,10.0986,-73.894
1240,Kua,Botswana,BWA,Definitely endangered,900.0,-22.7106,26.4605
1241,Njalgulgule,Sudan,SDN,Severely endangered,900.0,8.4452,25.3015
1242,Pech,Honduras,HND,Severely endangered,900.0,15.0819,-85.5552
1243,Rikbaktsa,Brazil,BRA,Severely endangered,900.0,-10.6174,-58.2714
1244,Caac,New Caledonia (France),NCL,Vulnerable,890.0,-20.3883,164.5614
1245,Inuinnaqtun,Canada,CAN,Definitely endangered,890.0,67.8443,-115.2742
1246,Voh-Koné dialects,New Caledonia (France),NCL,Definitely endangered,878.0,-20.9665,164.7866
1247,Kuna (Colombia),Colombia,COL,Severely endangered,876.0,7.8633,-76.9042
1248,Dení,Brazil,BRA,Vulnerable,875.0,-6.5773,-68.1591
1249,Tarao,India,IND,Critically endangered,870.0,24.297,93.4497
1250,Santa María del Mar Huave,Mexico,MEX,Severely endangered,862.0,16.2166,-94.85
1251,Nukuoro,Micronesia (Federated States of),FSM,Definitely endangered,860.0,3.8574,154.9786
1252,Mixtec of Santa Cruz Itundujia,Mexico,MEX,Definitely endangered,851.0,16.7666,-97.6
1253,"Zapotec of the Southern mountains, northeast",Mexico,MEX,Definitely endangered,849.0,16.2666,-96.2833
1254,Kumak,New Caledonia (France),NCL,Vulnerable,847.0,-20.1278,164.0259
1255,Pukapukan,Cook Islands,COK,Definitely endangered,840.0,-10.871,-165.8441
1256,Lola,Indonesia,IDN,Vulnerable,830.0,-6.3316,134.8818
1257,Ashaninka (Brazil),Brazil,BRA,Vulnerable,813.0,-9.3786,-73.1414
1258,Ottawa (Canada),"Canada, United States of America","CAN, USA",Severely endangered,810.0,46.1519,-82.2243
1259,Bati,Cameroon,CMR,Severely endangered,800.0,4.2012,10.7858
1260,Chorote Iyojwa'ja,"Argentina, Paraguay","ARG, PRY",Severely endangered,800.0,-24.287,-60.3808
1261,Eman,Cameroon,CMR,Severely endangered,800.0,6.0531,9.7338
1262,Isu,Cameroon,CMR,Severely endangered,800.0,4.0094,9.5745
1263,Jamamadí,Brazil,BRA,Vulnerable,800.0,-9.0424,-68.3789
1264,Javaé,Brazil,BRA,Definitely endangered,800.0,-11.1568,-50.4711
1265,Nubaca,Cameroon,CMR,Severely endangered,800.0,4.2971,10.7446
1266,Panasuan,Indonesia,IDN,Definitely endangered,800.0,-2.2516,119.5806
1267,Piaroa (Colombia),Colombia,COL,Definitely endangered,800.0,4.0,-68.6666
1268,Taos,United States of America,USA,Definitely endangered,800.0,36.4717,-105.5596
1269,Taulil,Papua New Guinea,PNG,Vulnerable,800.0,-4.5435,152.0397
1270,Tuyuca (Brazil),Brazil,BRA,Vulnerable,800.0,0.4394,-66.8847
1271,Kaike,Nepal,NPL,Definitely endangered,794.0,28.9642,82.9819
1272,Kildin Saami,Russian Federation,RUS,Severely endangered,787.0,68.0075,35.0079
1273,Ese eja,"Bolivia (Plurinational State of), Peru","BOL, PER",Definitely endangered,782.0,-12.5867,-69.0161
1274,Central Cagayan Agta,Philippines,PHL,Vulnerable,779.0,17.9891,121.8603
1275,Mixtec of Santa Inés de Zaragoza,Mexico,MEX,Definitely endangered,775.0,17.2333,-97.1666
1276,Ocopetatillo Mazatec,Mexico,MEX,Vulnerable,757.0,18.1856,-96.9113
1277,Jaqaru,Peru,PER,Severely endangered,750.0,-12.7488,-75.8248
1278,Waiwai (Suriname),Suriname,SUR,Critically endangered,750.0,2.1528,-56.206
1279,Laal,Chad,TCD,Critically endangered,749.0,9.9607,17.6083
1280,Ulcha,Russian Federation,RUS,Critically endangered,732.0,52.0457,140.4162
1281,Jawe,New Caledonia (France),NCL,Vulnerable,729.0,-20.4913,164.696
1282,Maslam,"Cameroon, Chad","CMR, TCD",Severely endangered,723.0,12.136,14.6914
1283,Nambiquara do Sul,Brazil,BRA,Vulnerable,721.0,-13.2506,-59.5404
1284,North Slavey,Canada,CAN,Definitely endangered,720.0,65.2161,-123.4362
1285,Gitksan,Canada,CAN,Severely endangered,710.0,55.355,-127.6828
1286,A'ingae / Cofan (Ecuador),Ecuador,ECU,Definitely endangered,700.0,0.0659,-76.7065
1287,Animere,Ghana,GHA,Critically endangered,700.0,7.6129,0.4064
1288,Batek,Malaysia,MYS,Critically endangered,700.0,4.6695,102.5051
1289,Enggano,Indonesia,IDN,Vulnerable,700.0,-5.4191,102.2717
1290,Indri,Sudan,SDN,Severely endangered,700.0,8.4397,25.5926
1291,Kalaw Lagaw Ya,Australia,AUS,Definitely endangered,700.0,-10.0828,142.1081
1292,Lakon,Vanuatu,VUT,Vulnerable,700.0,-14.251,167.422
1293,Mok (China),China,CHN,Definitely endangered,700.0,21.5158,100.221
1294,Ngaanyatjarra,Australia,AUS,Vulnerable,700.0,-26.037,124.541
1295,Ngatikese Men's Creole,Micronesia (Federated States of),FSM,Definitely endangered,700.0,5.8305,157.2308
1296,Piratapuya (Brazil),Brazil,BRA,Severely endangered,700.0,0.5712,-66.7089
1297,Mountain Guarijío,Mexico,MEX,Vulnerable,696.0,27.8758,-108.553
1298,Nivkh (Sakhalin),Russian Federation,RUS,Severely endangered,688.0,51.7814,143.1628
1299,Krikati,Brazil,BRA,Vulnerable,682.0,-5.8674,-46.7468
1300,Dakota,Canada,CAN,Definitely endangered,675.0,49.8461,-100.5035
1301,Carrier,Canada,CAN,Severely endangered,660.0,54.2395,-125.7621
1302,Matlatzinca,Mexico,MEX,Definitely endangered,651.0,19.0479,-100.2197
1303,Kasanga,Guinea-Bissau,GNB,Critically endangered,650.0,12.2702,-16.1553
1304,Wanano / Kotiria (Brazil),Brazil,BRA,Vulnerable,650.0,0.6152,-67.5
1305,Central Popoloc,Mexico,MEX,Severely endangered,641.0,18.5842,-97.9295
1306,Eastern Ojibwe,Canada,CAN,Severely endangered,620.0,44.8381,-80.1983
1307,River Guarijío,Mexico,MEX,Vulnerable,617.0,27.5196,-109.2525
1308,Yuhup (Brazil),Brazil,BRA,Vulnerable,617.0,-1.0546,-69.3896
1309,Ocoyoacac Otomí,Mexico,MEX,Severely endangered,609.0,19.2716,-99.4613
1310,Akum,"Cameroon, Nigeria","CMR, NGA",Critically endangered,600.0,6.73,9.9316
1311,Blablanga,Solomon Islands,SLB,Definitely endangered,600.0,-8.206,159.4638
1312,Bubia,Cameroon,CMR,Severely endangered,600.0,4.0204,9.2037
1313,Chickasaw,United States of America,USA,Severely endangered,600.0,34.6,-96.8161
1314,Desano (Brazil),Brazil,BRA,Definitely endangered,600.0,0.0878,-67.9394
1315,Faetar,Italy,ITA,Definitely endangered,600.0,41.3265,15.1721
1316,Hixkaryána,Brazil,BRA,Vulnerable,600.0,-0.5493,-58.5131
1317,Hoava,Solomon Islands,SLB,Vulnerable,600.0,-8.1883,157.6036
1318,Hodi,Venezuela (Bolivarian Republic of),VEN,Vulnerable,600.0,6.075,-65.6323
1319,Iñapari,Peru,PER,Critically endangered,600.0,-12.0822,-69.7412
1320,Koke,Chad,TCD,Severely endangered,600.0,10.8575,18.1315
1321,Kowiai,Indonesia,IDN,Vulnerable,600.0,-3.9437,134.0881
1322,Kuikuro,Brazil,BRA,Vulnerable,600.0,-12.35,-53.21
1323,Laiyolo,Indonesia,IDN,Definitely endangered,600.0,-6.3862,120.4733
1324,Mo'da,Sudan,SDN,Critically endangered,600.0,6.5008,29.9377
1325,Northern Selkup,Russian Federation,RUS,Severely endangered,600.0,65.7035,82.4441
1326,Penrhyn,Cook Islands,COK,Severely endangered,600.0,-9.0153,-158.0218
1327,Pintupi,Australia,AUS,Vulnerable,600.0,-22.8882,128.3203
1328,Piratapuya (Colombia),Colombia,COL,Critically endangered,600.0,0.8333,-69.5
1329,Siona / Secoya (Ecuador),Ecuador,ECU,Severely endangered,600.0,-0.0659,-76.3989
1330,Sonsorol,Palau,PLW,Severely endangered,600.0,7.4278,134.5495
1331,Teanu,Solomon Islands,SLB,Definitely endangered,600.0,-11.6219,166.9633
1332,Yaminahua (Brazil),Brazil,BRA,Vulnerable,600.0,-10.6606,-69.6972
1333,Andoke,Colombia,COL,Severely endangered,597.0,-0.769,-72.2351
1334,Southern Tlapanec,Mexico,MEX,Severely endangered,592.0,16.7325,-98.6034
1335,Orowe,New Caledonia (France),NCL,Definitely endangered,587.0,-21.4223,165.4678
1336,Mosetén,Bolivia (Plurinational State of),BOL,Severely endangered,585.0,-15.4113,-67.5
1337,Chatong,Lao People's Democratic Republic,LAO,Definitely endangered,580.0,15.65,107.1166
1338,Norfolk-Pitcairn (Norfolk),Norfolk Island (Australia),NFK,Definitely endangered,580.0,-29.0225,167.9425
1339,Nunatsiavummiutut,Canada,CAN,Definitely endangered,575.0,56.532,-61.7408
1340,Shuswap,Canada,CAN,Definitely endangered,570.0,51.7886,-122.2286
1341,Xaragure,New Caledonia (France),NCL,Vulnerable,566.0,-21.8054,166.4964
1342,Tapirapé,Brazil,BRA,Vulnerable,564.0,-10.6606,-50.4602
